City_ID,City,Lat,Lng,Max Temp,Humidity,Cloudiness,Wind Speed,Country,Date
0,punta arenas,-53.15,-70.9167,4.06,87,20,6.69,CL,1680918064
1,lebu,-37.6167,-73.65,11.7,89,100,6.49,CL,1680918065
2,chokurdakh,70.6333,147.9167,-17.49,91,26,1.81,RU,1680918066
3,avera,33.194,-82.5271,11.32,87,100,7.24,US,1680918066
4,fortuna,40.5982,-124.1573,11.48,81,100,0.89,US,1680918066
5,hornepayne,49.2138,-84.7705,-6.0,95,99,2.98,CA,1680918067
6,torbay,47.6666,-52.7314,1.99,86,20,10.29,CA,1680918068
7,coihaique,-45.5752,-72.0662,6.34,87,0,1.03,CL,1680918069
8,lata,40.1629,-8.3327,11.07,65,74,0.75,PT,1680918069
9,east london,-33.0153,27.9116,20.02,74,81,4.65,ZA,1680918070
10,port macquarie,-31.4333,152.9167,25.5,40,0,6.14,AU,1680918071
11,lasa,46.6166,10.7002,6.49,94,90,2.32,IT,1680918071
12,ushuaia,-54.8,-68.3,4.81,75,20,7.2,AR,1680918048
13,thompson,55.7435,-97.8558,4.09,33,20,3.6,CA,1680917520
14,athabasca,54.7169,-113.2854,6.23,92,93,4.85,CA,1680918073
15,kapaa,22.0752,-159.319,26.99,83,100,7.2,US,1680918074
16,dingle,10.9995,122.6711,29.9,62,40,4.99,PH,1680918074
17,rikitea,-23.1203,-134.9692,25.0,68,49,6.17,PF,1680918075
18,sao filipe,14.8961,-24.4956,21.95,78,100,2.14,CV,1680918076
19,bredasdorp,-34.5322,20.0403,14.43,74,100,0.86,ZA,1680918076
20,hithadhoo,-0.6,73.0833,28.01,63,72,2.17,MV,1680918077
21,bosaso,11.2842,49.1816,27.01,61,100,3.71,SO,1680918078
22,sungaipenuh,-2.0833,101.3833,23.31,69,63,1.1,ID,1680918079
23,port alfred,-33.5906,26.891,17.59,86,20,3.22,ZA,1680918079
24,quatre cocos,-20.2078,57.7625,23.94,80,61,3.19,MU,1680918080
25,ignatovka,53.9479,47.6536,1.47,75,8,3.2,RU,1680918081
26,daru,-9.0763,143.2092,25.05,91,100,2.44,PG,1680918081
27,mataura,-46.1927,168.8643,15.27,50,0,1.72,NZ,1680918082
28,busselton,-33.65,115.3333,19.41,45,0,5.61,AU,1680918083
29,suluq,31.6682,20.2521,15.42,51,100,6.42,LY,1680918083
30,bluff,-46.6,168.3333,15.45,58,0,2.17,NZ,1680918085
31,dikson,73.5069,80.5464,-32.08,92,5,3.48,RU,1680917512
32,changli,39.7042,119.1506,15.1,18,0,3.94,CN,1680918086
33,mar del plata,-38.0023,-57.5575,18.94,79,0,5.36,AR,1680918087
34,cumpas,29.9833,-109.7833,20.24,16,1,4.13,MX,1680918087
35,takapau,-40.0333,176.35,14.29,75,100,3.05,NZ,1680918088
36,mananjary,-21.2167,48.3333,22.83,88,100,1.35,MG,1680918089
37,cape town,-33.9258,18.4232,15.61,80,75,4.12,ZA,1680918090
38,waipawa,-41.4122,175.5153,12.39,64,100,4.69,NZ,1680918091
39,albany,42.6001,-73.9662,3.36,50,100,2.24,US,1680918009
40,vaini,-21.2,-175.2,30.09,79,40,6.17,TO,1680918093
41,egvekinot,66.3167,-179.1667,-20.05,85,81,0.79,RU,1680918094
42,isangel,-19.55,169.2667,28.27,69,22,1.67,VU,1680918094
43,kelowna,49.8831,-119.4857,10.49,86,100,1.03,CA,1680917803
44,hobart,-42.8794,147.3294,16.92,55,40,6.69,AU,1680918096
45,kaitangata,-46.2817,169.8464,16.07,68,0,4.76,NZ,1680918096
46,carnarvon,-24.8667,113.6333,22.8,55,8,5.08,AU,1680917898
47,hasaki,35.7333,140.8333,19.22,58,44,2.04,JP,1680918098
48,esperance,-33.8667,121.9,15.65,76,100,5.04,AU,1680918098
49,manono,-7.3,27.4167,20.35,95,92,1.15,CD,1680918099
50,guerrero negro,27.9769,-114.0611,15.03,70,0,7.24,MX,1680918099
51,puerto ayora,-0.7393,-90.3518,26.97,88,100,1.41,EC,1680918099
52,tasiilaq,65.6145,-37.6368,0.09,92,97,11.78,GL,1680918100
53,yellowknife,62.456,-114.3525,5.29,56,75,7.72,CA,1680917825
54,hermanus,-34.4187,19.2345,13.22,80,100,3.29,ZA,1680917816
55,castro,-24.7911,-50.0119,15.5,98,100,2.8,BR,1680918101
56,arman,59.7,150.1667,-5.54,72,23,0.63,RU,1680918102
57,nikolskoye,59.7035,30.7861,-1.06,98,29,1.03,RU,1680918102
58,xuanhua,40.6103,115.0447,9.04,25,0,2.01,CN,1680918102
59,honningsvag,70.9821,25.9704,1.86,93,100,6.17,NO,1680918104
60,grindavik,63.8424,-22.4338,8.97,81,75,12.35,IS,1680918104
61,tuktoyaktuk,69.4541,-133.0374,-16.0,85,75,8.75,CA,1680918105
62,los llanos de aridane,28.6585,-17.9182,15.86,77,40,2.24,ES,1680917863
63,port blair,11.6667,92.75,27.02,83,20,1.03,IN,1680918106
64,airai,-8.9266,125.4092,19.83,69,100,1.72,TL,1680918106
65,lompoc,34.6391,-120.4579,16.55,76,20,6.71,US,1680918107
66,les cayes,18.2,-73.75,23.07,77,7,0.88,HT,1680918107
67,faanui,-16.4833,-151.75,28.66,76,89,9.61,PF,1680918108
68,balint,45.8125,21.8536,4.86,97,100,1.1,RO,1680918108
69,nuevitas,21.5453,-77.2644,23.98,74,9,4.49,CU,1680918109
70,avarua,-21.2078,-159.775,29.03,79,20,6.17,CK,1680918109
71,saskylakh,71.9167,114.0833,-20.01,93,99,5.49,RU,1680918110
72,cidreira,-30.1811,-50.2056,20.84,77,96,4.68,BR,1680918111
73,santa maria,-29.6842,-53.8069,18.61,94,75,2.06,BR,1680918077
74,tiksi,71.6872,128.8694,-17.68,86,53,7.99,RU,1680918112
75,hilo,19.7297,-155.09,25.85,73,75,4.12,US,1680918112
76,shimoda,34.6667,138.95,19.5,51,15,13.05,JP,1680918113
77,el rosario,24.2556,-107.1828,18.89,53,0,3.01,MX,1680918114
78,jamestown,42.097,-79.2353,2.77,74,0,2.57,US,1680918114
79,karaton,-6.3424,106.1045,28.53,63,46,1.57,ID,1680918115
80,georgetown,5.4112,100.3354,27.96,89,20,1.54,MY,1680918116
81,kostomuksha,64.571,30.5767,-0.2,97,100,3.04,RU,1680918116
82,arraial do cabo,-22.9661,-42.0278,22.84,91,100,5.47,BR,1680917894
83,new norfolk,-42.7826,147.0587,16.72,60,99,2.24,AU,1680918117
84,havoysund,70.9963,24.6622,2.13,99,100,9.42,NO,1680918117
85,qaqortoq,60.7167,-46.0333,-1.68,91,100,3.5,GL,1680918119
86,masvingo,-20.0637,30.8277,15.58,60,0,2.53,ZW,1680918119
87,ornskoldsvik,63.2909,18.7153,-2.47,80,20,2.57,SE,1680918120
88,iqaluit,63.7506,-68.5145,-24.15,77,20,4.12,CA,1680918120
89,kloulklubed,7.0419,134.2556,28.28,72,100,6.06,PW,1680918121
90,sakhnovshchyna,49.1517,35.872,7.4,85,100,3.9,UA,1680918121
91,teseney,15.11,36.6575,24.49,53,77,3.0,ER,1680918123
92,bambous virieux,-20.3428,57.7575,24.01,94,40,2.06,MU,1680918124
93,san carlos,9.6612,-68.5827,27.53,56,100,1.5,VE,1680918125
94,anloga,5.7947,0.8973,27.95,79,100,5.31,GH,1680918125
95,kathmandu,27.7167,85.3167,14.12,77,40,1.54,NP,1680917587
96,lardos,36.0942,28.0157,14.9,77,95,2.18,GR,1680918127
97,katsuura,35.1333,140.3,18.85,50,5,11.25,JP,1680918128
98,tuatapere,-46.1333,167.6833,15.75,49,0,1.03,NZ,1680918128
99,lorengau,-2.0226,147.2712,28.6,71,100,4.66,PG,1680918129
100,san jeronimo,-11.9472,-75.2829,8.76,92,100,2.12,PE,1680918130
101,sitka,57.0531,-135.33,5.94,70,75,2.57,US,1680918130
102,mahebourg,-20.4081,57.7,24.03,94,40,2.06,MU,1680918131
103,ritchie,-29.038,24.6028,18.56,54,60,4.65,ZA,1680918131
104,sabang,5.8933,95.3214,27.82,71,100,0.71,ID,1680918132
105,taoudenni,22.6783,-3.9836,23.67,16,31,4.8,ML,1680918133
106,baruun-urt,46.6806,113.2792,8.47,22,4,11.75,MN,1680918133
107,muravlenko,63.7898,74.523,-4.51,95,100,11.0,RU,1680918134
108,tupik,54.4253,119.9327,0.12,81,64,3.22,RU,1680918134
109,qaanaaq,77.484,-69.3632,-28.46,67,0,2.78,GL,1680918135
110,touros,-5.1989,-35.4608,25.43,89,99,2.98,BR,1680917944
111,gornopravdinsk,60.05,69.9,-6.04,70,100,5.23,RU,1680918137
112,upata,8.0086,-62.3989,25.11,69,100,3.25,VE,1680918137
113,santa cecilia,-26.9608,-50.4269,13.47,98,100,1.79,BR,1680918138
114,lomianki,52.3341,20.886,7.27,84,75,3.6,PL,1680917849
115,khandyga,62.6667,135.6,-10.52,71,100,4.11,RU,1680918139
116,nanortalik,60.1432,-45.2371,-1.32,91,100,2.43,GL,1680918140
117,ostersund,63.1792,14.6357,0.25,74,75,1.54,SE,1680918142
118,marang,5.2056,103.2059,27.95,73,73,0.91,MY,1680918143
119,vao,-22.6667,167.4833,24.32,75,2,3.55,NC,1680918144
120,alice springs,-23.7,133.8833,26.23,34,1,4.63,AU,1680918144
121,arrecife,28.963,-13.5477,17.99,68,20,2.06,ES,1680918145
122,whitehorse,60.7161,-135.0538,5.43,36,75,8.23,CA,1680918003
123,urumqi,43.801,87.6005,11.53,16,0,3.0,CN,1680918146
124,kuching,1.55,110.3333,28.9,78,20,2.06,MY,1680918147
125,alyangula,-13.8483,136.4192,29.85,69,93,5.86,AU,1680918148
126,asau,46.4333,26.4,-0.4,92,100,1.02,RO,1680918148
127,mitsamiouli,-11.3847,43.2844,27.09,78,75,3.28,KM,1680918149
128,maarianhamina,60.0973,19.9348,1.01,86,0,2.57,AX,1680918150
129,beringovskiy,63.05,179.3167,-14.46,81,98,0.68,RU,1680918151
130,barrow,71.2906,-156.7887,-20.99,77,100,6.17,US,1680918151
131,zhuanghe,39.7008,122.9911,10.57,25,0,5.52,CN,1680918152
132,ponta do sol,32.6667,-17.1,18.34,70,77,0.66,PT,1680918153
133,adrar,20.5022,-10.0711,25.81,22,100,3.18,MR,1680918153
134,rongcheng,30.634,117.8517,17.21,41,7,2.48,CN,1680918154
135,cayenne,4.9333,-52.3333,23.02,88,20,0.0,GF,1680918067
136,buala,-8.145,159.5921,29.77,69,97,2.88,SB,1680918156
137,kamenka,51.3223,42.7678,4.77,79,9,3.93,RU,1680918156
138,strezhevoy,60.7333,77.5889,-9.59,83,100,7.47,RU,1680918157
139,butaritari,3.0707,172.7902,27.81,80,68,7.83,KI,1680918157
140,nuuk,64.1835,-51.7216,-1.66,86,75,6.69,GL,1680918063
141,srednekolymsk,67.45,153.6833,-11.3,82,91,1.62,RU,1680918158
142,nakamura,32.9833,132.9333,14.02,43,1,5.46,JP,1680918159
143,nemuro,43.3236,145.575,2.4,96,100,2.94,JP,1680918098
144,meulaboh,4.1363,96.1285,25.76,83,100,1.85,ID,1680918160
145,ribeira grande,38.5167,-28.7,10.99,77,25,2.68,PT,1680918161
146,tautira,-17.7333,-149.15,28.77,75,100,9.71,PF,1680918161
147,lumphat,13.4878,106.9816,31.23,41,1,2.72,KH,1680918162
148,chuy,-33.6971,-53.4616,16.46,75,15,1.65,UY,1680918162
149,khatanga,71.9667,102.5,-21.46,94,100,6.3,RU,1680918163
150,zhigansk,66.7697,123.3711,-9.43,92,100,12.46,RU,1680918163
151,port hardy,50.6996,-127.4199,8.1,71,100,3.6,CA,1680918164
152,smithers,54.7804,-127.1743,6.18,61,75,4.12,CA,1680917875
153,saint marys,30.7305,-81.5465,24.47,85,56,3.13,US,1680918070
154,karratha,-20.7377,116.8463,32.18,34,56,2.66,AU,1680918165
155,port elizabeth,-33.918,25.5701,18.16,96,75,2.24,ZA,1680918165
156,dunedin,-45.8742,170.5036,17.26,46,0,7.24,NZ,1680918166
157,cherskiy,68.75,161.3,-16.55,84,94,1.27,RU,1680918166
158,vostok,46.4856,135.8833,1.07,36,0,3.62,RU,1680918167
159,timra,62.487,17.3257,-3.18,80,100,1.03,SE,1680918167
160,sao jose da coroa grande,-8.8978,-35.1478,26.23,83,68,1.99,BR,1680918168
161,naliya,23.2667,68.8333,24.23,64,7,3.08,IN,1680918168
162,mogocha,53.7333,119.7667,-0.13,69,48,1.97,RU,1680918169
163,saint anthony,45.0205,-93.218,5.99,60,0,4.63,US,1680918169
164,jatiroto,-7.8833,111.1167,26.78,72,80,1.99,ID,1680918170
165,itoman,26.1247,127.6694,20.21,60,75,11.83,JP,1680918170
166,sinnamary,5.3833,-52.95,24.47,78,45,4.12,GF,1680918171
167,papetoai,-17.4961,-149.8729,31.77,75,100,8.43,PF,1680918171
168,ajdabiya,30.7554,20.2263,15.97,50,100,6.43,LY,1680918173
169,suntar,62.1444,117.6319,-14.15,70,28,1.9,RU,1680918173
170,longyearbyen,78.2186,15.6401,-11.09,73,75,4.63,SJ,1680917979
171,victor harbor,-35.5667,138.6167,16.49,62,58,6.67,AU,1680918174
172,puerto escondido,15.85,-97.0667,27.46,69,0,1.54,MX,1680918175
173,bathsheba,13.2167,-59.5167,26.34,65,20,9.77,BB,1680918176
174,mount gambier,-37.8333,140.7667,15.1,62,100,5.54,AU,1680918177
175,keetmanshoop,-26.5833,18.1333,16.04,44,0,4.41,NA,1680918177
176,naron,43.5167,-8.1528,12.04,66,100,2.08,ES,1680918177
177,seymchan,62.8833,152.4333,-12.15,81,94,1.39,RU,1680918178
178,sibolga,1.7427,98.7792,27.35,71,92,0.19,ID,1680918179
179,cabo san lucas,22.8909,-109.9124,25.17,53,0,3.09,MX,1680918168
180,broken hill,-31.95,141.4333,20.29,44,2,8.37,AU,1680918179
181,bay roberts,47.5999,-53.2648,2.41,84,24,4.92,CA,1680918180
182,novyy yegorlyk,46.3927,41.8716,10.05,76,96,3.31,RU,1680918180
183,birnin kebbi,12.4539,4.1975,33.57,22,86,1.07,NG,1680918181
184,tilichiki,60.4667,166.1,-7.76,78,48,1.31,RU,1680918181
185,constitucion,-35.3333,-72.4167,15.32,51,77,4.08,CL,1680918183
186,erzin,36.9559,36.2,9.73,78,0,0.32,TR,1680918183
187,severo-kurilsk,50.6789,156.125,0.57,98,100,10.64,RU,1680918184
188,taonan,45.3333,122.7833,9.01,11,7,5.07,CN,1680918185
189,laguna,38.421,-121.4238,17.1,68,40,4.12,US,1680918186
190,kieta,-6.2167,155.6333,29.95,68,100,2.67,PG,1680918186
191,buraydah,26.326,43.975,17.25,43,90,3.19,SA,1680918188
192,puerto baquerizo moreno,-0.9,-89.6,26.42,79,100,2.08,EC,1680918188
193,faya,18.3851,42.4509,15.06,78,59,2.97,SA,1680918189
194,ekhabi,53.5102,142.9671,-1.58,77,100,8.15,RU,1680918190
195,campbell river,50.0163,-125.2446,11.21,50,100,3.6,CA,1680918190
196,atuona,-9.8,-139.0333,27.46,74,63,8.78,PF,1680918191
197,roanoke rapids,36.4615,-77.6542,8.32,100,100,2.06,US,1680918192
198,mackay,-21.15,149.2,33.16,72,6,2.61,AU,1680918193
199,kavieng,-2.5744,150.7967,26.75,86,100,3.52,PG,1680918193
200,clyde river,70.4692,-68.5914,-25.87,76,0,5.66,CA,1680918194
201,timbauba,-7.5053,-35.3183,23.6,92,88,1.71,BR,1680918195
202,asosa,10.0667,34.5333,20.81,24,78,1.46,ET,1680918200
203,aswan,24.0934,32.907,22.61,12,0,3.09,EG,1680918201
204,cutlerville,42.8409,-85.6636,6.21,58,20,3.09,US,1680918202
205,birin,26.8865,88.0718,18.88,33,46,0.52,NP,1680918202
206,ruwi,23.5996,58.5507,24.83,70,20,1.5,OM,1680918203
207,provideniya,64.3833,-173.3,-18.52,70,22,1.53,RU,1680918204
208,nakano,36.75,138.3667,16.87,72,100,2.29,JP,1680918204
209,khani,41.9563,42.9566,5.76,97,100,0.6,GE,1680918205
210,narsaq,60.9167,-46.05,1.12,88,100,2.19,GL,1680918205
211,upernavik,72.7868,-56.1549,-29.05,99,48,5.71,GL,1680918206
212,katima mulilo,-17.5,24.2667,16.97,60,86,1.93,NA,1680918207
213,flinders,-34.5833,150.8552,23.43,55,55,3.13,AU,1680918208
214,melfi,40.9965,15.6514,4.16,91,18,3.26,IT,1680918209
215,beloha,-25.1667,45.05,22.6,88,73,1.65,MG,1680918210
216,phetchabun,16.25,101.0833,27.15,52,100,1.98,TH,1680918211
217,cap malheureux,-19.9842,57.6142,24.15,79,17,0.89,MU,1680918211
218,padang,-0.9492,100.3543,26.03,74,95,1.07,ID,1680918174
219,whyalla,-33.0333,137.5833,19.08,66,56,9.25,AU,1680918213
220,kendari,-3.945,122.4989,29.25,65,100,1.66,ID,1680918214
221,ocos,14.5094,-92.1933,29.1,64,90,1.74,GT,1680918214
222,rosetta,31.4044,30.4164,15.75,84,21,5.65,EG,1680918215
223,havelock,34.8791,-76.9013,13.3,79,100,11.32,US,1680918216
224,victoria,22.2855,114.1577,23.44,81,100,0.45,HK,1680918066
225,jalu,29.0331,21.5482,18.29,44,100,5.7,LY,1680918217
226,tura,25.5198,90.2201,26.5,37,0,0.32,IN,1680918218
227,bonthe,7.5264,-12.505,25.99,88,15,2.57,SL,1680918219
228,bawku,11.0616,-0.2417,31.84,38,93,2.77,GH,1680918219
229,banes,20.9625,-75.7186,23.7,74,5,3.82,CU,1680918220
230,kralendijk,12.15,-68.2667,25.99,78,20,5.66,BQ,1680918220
231,pevek,69.7008,170.3133,-23.26,91,84,0.43,RU,1680918221
232,tolaga bay,-38.3667,178.3,15.31,94,100,8.85,NZ,1680918221
233,rawson,-43.3002,-65.1023,12.89,54,100,6.55,AR,1680918221
234,komsomolskiy,40.4272,71.7189,12.4,76,99,3.09,UZ,1680918222
235,winchester,51.0651,-1.3187,4.58,88,9,1.03,GB,1680918222
236,newport,51.5877,-2.9984,8.07,79,14,1.5,GB,1680918014
237,chirongui,-12.9319,45.1483,25.96,72,100,1.5,YT,1680918223
238,panormos,35.4182,24.6909,11.68,74,100,1.85,GR,1680918224
239,ahipara,-35.1667,173.1667,19.58,61,100,3.71,NZ,1680918224
240,marienburg,54.0359,19.0266,6.69,90,100,2.47,PL,1680918225
241,honiara,-9.4333,159.95,30.44,68,27,2.06,SB,1680918225
242,tokoname,34.8833,136.85,15.93,63,75,10.29,JP,1680918226
243,atherton,53.5237,-2.4935,7.66,81,10,0.45,GB,1680918226
244,katobu,-4.9408,122.5276,29.16,69,79,3.9,ID,1680918226
245,el alto,-4.2714,-81.2147,24.81,75,21,1.32,PE,1680918227
246,jeremie,18.65,-74.1167,23.85,77,2,0.98,HT,1680918227
247,inverell,-29.7833,151.1167,20.93,54,0,5.36,AU,1680918228
248,korfovskiy,48.2183,135.0564,2.7,32,0,3.4,RU,1680918228
249,gwanda,-20.9333,29.0,17.34,52,0,3.0,ZW,1680918229
250,novobirilyussy,56.9514,90.6661,-11.77,66,33,1.61,RU,1680918229
251,fostoria,41.157,-83.4169,5.09,69,84,3.58,US,1680918230
252,diffa,13.3154,12.6113,30.77,17,97,2.89,NE,1680918230
253,kahului,20.8947,-156.47,26.01,66,40,8.75,US,1680918230
254,bennettsville,34.6174,-79.6848,9.49,98,100,4.12,US,1680918231
255,gorontalo,0.5412,123.0595,30.3,63,80,2.63,ID,1680918023
256,mount isa,-20.7333,139.5,29.87,25,30,4.63,AU,1680918232
257,codrington,-38.2667,141.9667,15.18,68,100,8.32,AU,1680918232
258,hovd,48.0056,91.6419,6.33,25,100,3.04,MN,1680918233
259,gari,59.4307,62.3497,-3.6,66,7,3.33,RU,1680918233
260,kruisfontein,-34.0033,24.7314,16.05,87,100,2.95,ZA,1680918233
261,luocheng,29.3848,104.0286,17.84,53,27,0.32,CN,1680918234
262,ternate,0.8,127.4,27.9,80,100,4.83,ID,1680918234
263,san nicola,40.6116,8.991,6.0,97,18,2.31,IT,1680918235
264,langarud,37.197,50.1535,10.03,68,2,1.82,IR,1680918235
265,ugoofaaru,5.6667,73.0,28.02,73,14,3.7,MV,1680918236
266,hervey bay,-25.2986,152.8535,28.37,46,0,4.34,AU,1680918023
267,saint-pierre,-21.3393,55.4781,23.82,73,20,2.06,RE,1680918237
268,portland,45.5234,-122.6762,12.12,74,99,3.58,US,1680918099
269,sao joao da barra,-21.6403,-41.0511,24.24,90,100,2.5,BR,1680918238
270,ishigaki,24.3448,124.1572,20.07,60,40,9.26,JP,1680918238
271,oktyabrskiy,54.4815,53.471,-0.98,60,0,1.53,RU,1680918239
272,mayo,38.8876,-76.5119,12.3,50,0,2.06,US,1680917952
273,calama,-22.4667,-68.9333,16.27,48,0,4.63,CL,1680918240
274,nehe,48.4833,124.8333,5.12,28,1,3.37,CN,1680918240
275,antofagasta,-23.65,-70.4,19.6,86,39,1.66,CL,1680918241
276,iquique,-20.2208,-70.1431,21.02,76,7,0.26,CL,1680918241
277,adigeni,41.6819,42.6987,4.61,95,98,0.95,GE,1680918242
278,san ignacio,17.1561,-89.0714,29.08,45,0,5.14,BZ,1680918243
279,joao pinheiro,-17.7425,-46.1725,23.16,59,84,0.93,BR,1680918244
280,mwinilunga,-11.7358,24.4293,14.87,96,99,1.28,ZM,1680918245
281,salalah,17.0151,54.0924,27.05,74,20,1.03,OM,1680918246
282,boyabat,41.4689,34.7667,6.47,89,79,0.91,TR,1680918248
283,vila franca do campo,37.7167,-25.4333,11.23,67,6,3.75,PT,1680918140
284,sakakah,29.9697,40.2064,16.76,15,0,2.73,SA,1680918249
285,geraldton,-28.7667,114.6,21.23,56,0,4.63,AU,1680918250
286,saint-philippe,-21.3585,55.7679,23.77,86,71,3.44,RE,1680918251
287,vitim,59.4511,112.5578,-12.43,75,95,5.24,RU,1680918251
288,khromtau,50.2503,58.4347,-1.59,69,100,8.2,KZ,1680918252
289,namibe,-15.1961,12.1522,23.86,78,94,2.99,AO,1680918253
290,krutinka,56.0055,71.5113,-7.75,68,1,3.73,RU,1680918253
291,shihezi,44.3,86.0333,11.9,42,97,1.5,CN,1680918254
292,bahia honda,22.9036,-83.1592,23.65,71,73,5.0,CU,1680918255
293,borba,-4.3878,-59.5939,22.7,98,99,1.09,BR,1680918256
294,manta,-0.95,-80.7333,26.88,83,75,1.54,EC,1680918257
295,anqing,30.5092,117.0506,17.38,43,7,3.61,CN,1680918257
296,chapais,49.7834,-74.8492,-9.12,86,95,4.69,CA,1680918258
297,tatebayashi,36.25,139.5333,16.94,57,91,3.49,JP,1680918259
298,tak,16.5833,98.8333,27.1,66,78,1.15,TH,1680918259
299,oregon,44.0001,-120.5014,5.9,67,17,6.97,US,1680917970
300,san quintin,30.4833,-115.95,14.6,74,71,7.04,MX,1680918260
301,wanlaweyn,2.6185,44.8938,26.25,78,13,2.87,SO,1680918261
302,tanete,-3.9443,119.7848,28.56,72,95,4.2,ID,1680918262
303,arkhangelsk,64.5401,40.5433,-3.94,50,0,1.0,RU,1680918262
304,beecher,43.09,-83.6944,4.1,62,0,3.09,US,1680918263
305,kefamenanu,-9.4467,124.4781,21.34,90,100,1.15,ID,1680918264
306,san patricio,28.017,-97.5169,15.92,96,100,4.0,US,1680918265
307,te anau,-45.4167,167.7167,14.98,49,0,0.3,NZ,1680918266
308,bemidji,47.4736,-94.8803,0.05,64,0,2.06,US,1680918193
309,la ronge,55.1001,-105.2842,5.14,36,0,8.75,CA,1680918267
310,mashivka,49.4431,34.8669,7.52,86,100,3.13,UA,1680918268
311,altenholz,54.4,10.1333,5.97,87,100,4.63,DE,1680918269
312,cocobeach,1.0002,9.5823,26.36,85,66,1.55,GA,1680918270
313,hlotse,-28.8718,28.045,12.76,55,43,1.45,LS,1680918271
314,svatove,49.4103,38.1503,8.08,86,89,4.0,UA,1680918271
315,luorong,24.4058,109.6086,18.73,57,68,4.44,CN,1680918272
316,ukiah,39.1502,-123.2078,13.94,68,40,2.06,US,1680918275
317,nelson bay,-32.7167,152.15,23.89,55,13,10.73,AU,1680918276
318,margosatubig,7.5777,123.1658,30.21,59,82,1.05,PH,1680918276
319,sola,-13.8833,167.55,28.32,71,13,2.89,VU,1680918277
320,zambezi,-13.5432,23.1047,16.19,86,99,2.1,ZM,1680918277
321,bengkulu,-3.8004,102.2655,27.51,70,54,1.31,ID,1680918278
322,la asuncion,11.0333,-63.8628,25.85,78,100,8.23,VE,1680918278
323,podhum,43.7231,17.0011,3.78,83,100,0.77,BA,1680918279
324,port lincoln,-34.7333,135.8667,17.65,57,24,7.22,AU,1680918279
325,antalaha,-14.9003,50.2788,23.47,88,19,2.16,MG,1680918280
326,ostrovnoy,68.0531,39.5131,-0.17,91,74,11.14,RU,1680918280
327,noumea,-22.2763,166.4572,29.99,99,16,3.88,NC,1680918150
328,balkanabat,39.5108,54.3671,15.25,53,0,2.76,TM,1680918281
329,norman wells,65.282,-126.8329,-5.98,58,75,7.72,CA,1680918281
330,raton,36.9034,-104.4391,12.19,19,0,9.26,US,1680918282
331,boguchany,58.3814,97.4531,-14.9,59,6,3.89,RU,1680918282
332,ilulissat,69.2167,-51.1,-20.1,97,100,1.94,GL,1680918283
333,amahai,-3.3333,128.9167,29.48,66,77,2.55,ID,1680918283
334,mehamn,71.0357,27.8492,1.97,93,75,4.63,NO,1680918284
335,anadyr,64.75,177.4833,-18.72,84,20,1.0,RU,1680918278
336,zhuhai,22.2769,113.5678,21.03,68,40,4.63,CN,1680918284
337,simeonovgrad,42.0333,25.8333,5.9,93,22,1.57,BG,1680918285
338,awjilah,29.1081,21.2869,17.82,45,89,6.77,LY,1680918285
339,myrhorod,49.9685,33.6089,7.64,89,99,3.19,UA,1680918286
340,tecoanapa,16.5167,-98.75,26.26,72,0,2.09,MX,1680918286
341,porosozero,62.7191,32.727,-1.24,95,100,2.09,RU,1680918287
342,teruel,40.6667,-0.6667,7.4,41,42,2.22,ES,1680918287
343,luanda,-8.8368,13.2343,25.0,83,75,2.06,AO,1680918288
344,belomorsk,64.5232,34.7668,-4.82,96,30,2.75,RU,1680918288
345,turukhansk,65.8167,87.9833,-17.54,92,100,6.3,RU,1680918289
346,kovur,14.4833,79.9833,27.3,71,0,3.29,IN,1680918011
347,pervomaysk,48.0443,30.8507,5.4,75,51,2.28,UA,1680918290
348,ancud,-41.8697,-73.8203,9.25,90,100,2.29,CL,1680918290
349,poum,-20.2333,164.0167,25.21,66,0,1.84,NC,1680918291
350,corinth,37.9407,22.9573,9.38,78,100,1.0,GR,1680918101
351,olafsvik,64.8945,-23.7142,6.54,81,59,15.56,IS,1680918281
352,labuhan,-6.8844,112.2051,27.89,73,100,3.33,ID,1680918292
353,carballo,43.213,-8.691,11.68,66,100,1.67,ES,1680918292
354,burnie,-41.0667,145.9167,17.47,65,40,7.77,AU,1680918293
355,bud,39.447,-86.1758,10.91,53,100,3.31,US,1680918294
356,mujiayingzi,42.1167,118.7833,11.43,15,0,5.26,CN,1680918295
357,amarkantak,22.6667,81.75,24.69,21,89,1.58,IN,1680918295
358,nacala,-14.5428,40.6728,22.87,96,98,2.3,MZ,1680918295
359,bandikui,27.05,76.5667,24.23,19,70,2.42,IN,1680918296
360,russkaya polyana,49.417,31.9201,7.08,88,100,3.57,UA,1680918296
361,fountain,38.6822,-104.7008,16.7,25,20,5.14,US,1680918044
362,chegutu,-18.1302,30.1407,14.33,81,5,1.96,ZW,1680918297
363,illela,13.7292,5.2975,32.89,15,98,7.16,NG,1680918298
364,holland,42.7875,-86.1089,6.35,65,0,0.0,US,1680918267
365,russell,32.3502,-85.1999,24.78,88,0,0.0,US,1680918299
366,biak,-0.9131,122.8766,28.87,62,100,1.36,ID,1680918299
367,kodiak,57.79,-152.4072,0.73,69,100,3.6,US,1680918299
368,santiago del estero,-27.7951,-64.2615,23.36,72,95,2.37,AR,1680918300
369,cabra,37.4725,-4.4421,11.05,38,0,2.23,ES,1680918301
370,sao sebastiao,-23.76,-45.4097,22.31,93,99,1.09,BR,1680918240
371,hami,42.8,93.45,11.87,12,6,2.4,CN,1680918303
372,mersing,2.4312,103.8405,25.95,89,40,2.06,MY,1680918304
373,barceloneta,18.4505,-66.5385,23.57,98,97,3.02,PR,1680918305
374,thohoyandou,-22.9456,30.485,18.99,50,0,2.02,ZA,1680918306
375,beroroha,-21.6667,45.1667,22.09,91,100,1.24,MG,1680918306
376,san vicente,-26.6167,-54.1333,15.55,99,27,1.07,AR,1680918307
377,dejen,10.1667,38.1333,12.86,81,50,1.4,ET,1680918308
378,gimli,50.6336,-96.9907,-3.99,74,7,2.06,CA,1680918309
379,ponta delgada,37.7333,-25.6667,10.4,76,20,2.57,PT,1680918309
380,gazli,40.1333,63.45,16.06,58,80,4.93,UZ,1680918311
381,saint-denis,48.9167,2.3333,7.3,87,0,3.6,FR,1680918311
382,dubti,11.7361,41.0853,27.43,67,100,5.42,ET,1680918312
383,pangnirtung,66.1451,-65.7125,-23.94,85,27,2.91,CA,1680918313
384,prince rupert,54.3161,-130.3201,7.05,70,0,9.77,CA,1680918042
385,stornoway,58.2093,-6.3865,6.98,89,18,3.09,GB,1680918314
386,qostanay,53.1667,63.5833,-7.84,79,0,3.0,KZ,1680918315
387,culebra,18.303,-65.301,26.02,87,69,4.02,PR,1680918315
388,eydhafushi,5.1033,73.0708,28.02,72,15,2.72,MV,1680918316
389,hofn,64.2539,-15.2082,6.98,96,100,10.66,IS,1680918317
390,grand forks,47.9417,-97.4337,-2.04,80,0,3.6,US,1680918318
391,mariental,-24.6333,17.9667,19.6,33,6,2.58,NA,1680918319
392,payakumbuh,-0.2202,100.6308,22.14,92,100,0.82,ID,1680918320
393,richards bay,-28.783,32.0377,21.85,91,64,3.75,ZA,1680918321
394,san cristobal,7.7669,-72.225,20.1,75,100,0.59,VE,1680918043
395,carroll,39.5501,-77.0164,10.18,41,0,1.54,US,1680918322
396,klaksvik,62.2266,-6.589,7.51,94,42,9.55,FO,1680918296
397,bethel,41.3712,-73.414,7.64,38,0,5.14,US,1680918323
398,swan hill,-35.3378,143.5544,18.17,55,98,7.7,AU,1680918324
399,kutum,14.2,24.6667,20.95,13,56,2.88,SD,1680918325
400,ankpa,7.3706,7.6253,25.43,80,100,3.91,NG,1680918325
401,san jose,37.3394,-121.895,16.08,73,100,6.17,US,1680918249
402,angoram,-4.0625,144.0661,24.27,95,100,0.91,PG,1680918326
403,port hedland,-20.3167,118.5667,33.03,49,16,4.63,AU,1680918327
404,kisanga,-7.4362,37.7034,21.83,98,43,0.3,TZ,1680918328
405,mendi,-6.1761,143.6513,17.41,76,100,0.58,PG,1680918329
406,royal tunbridge wells,51.1325,0.2633,6.35,62,0,1.11,GB,1680918330
407,joshimath,30.5667,79.5667,12.58,25,0,3.0,IN,1680918330
408,manjacaze,-24.7117,33.8828,19.19,80,0,2.87,MZ,1680918331
409,punakha,27.5837,89.8598,18.49,65,71,0.14,BT,1680918332
410,moose factory,51.2585,-80.6094,-4.0,50,20,2.57,CA,1680918333
411,tucuman,-26.8241,-65.2226,20.0,83,0,3.09,AR,1680918333
412,peterhead,57.5058,-1.7981,7.22,90,100,7.56,GB,1680918334
413,lavrentiya,65.5833,-171.0,-19.27,71,93,2.85,RU,1680918335
414,mandera,3.9366,41.867,26.7,69,66,6.49,KE,1680918336
415,batagay-alyta,67.8006,130.4114,-20.51,86,71,1.57,RU,1680918336
416,kiama,-34.6833,150.8667,23.54,55,66,5.81,AU,1680918072
417,sabha,27.0377,14.4283,20.37,25,78,6.5,LY,1680918337
418,elliot,-31.3333,27.85,11.88,78,60,0.6,ZA,1680918337
419,sorland,67.667,12.6934,3.92,84,100,9.9,NO,1680918338
420,karymskoye,51.6167,114.35,9.53,32,6,2.9,RU,1680918338
421,ganganagar,29.9167,73.8833,22.28,31,0,1.8,IN,1680918339
422,ampanihy,-24.7,44.75,22.25,87,99,1.95,MG,1680918340
423,tagab,34.855,69.6492,14.25,42,0,2.08,AF,1680918340
424,lagoa,39.05,-27.9833,12.85,59,6,4.8,PT,1680918340
425,kresttsy,58.2452,32.5165,0.57,90,6,2.17,RU,1680918341
426,baiyin,36.5583,104.2081,9.91,39,0,3.09,CN,1680918341
427,aksu,41.1231,80.2644,10.76,19,0,2.6,CN,1680918342
428,nakhon phanom,17.3333,104.4167,27.82,50,59,3.95,TH,1680918342
429,la reforma,25.0833,-108.05,18.91,66,0,3.2,MX,1680918343
430,hobyo,5.3505,48.5268,27.19,64,16,5.97,SO,1680918343
431,phibun mangsahan,15.2447,105.2291,32.83,48,97,5.7,TH,1680918344
432,bridgend,51.5058,-3.5772,8.06,82,49,2.24,GB,1680918344
433,leningradskiy,69.3833,178.4167,-20.83,90,100,4.99,RU,1680918345
434,solnechnyy,50.7214,136.6319,-0.63,70,100,3.34,RU,1680918345
435,oranjestad,12.524,-70.027,26.06,84,20,7.2,AW,1680918345
436,neiafu,-18.65,-173.9833,29.38,79,75,4.12,TO,1680918346
437,namtsy,62.7161,129.6658,-7.27,94,100,6.02,RU,1680918346
438,birao,10.2849,22.7882,24.06,15,94,2.84,CF,1680918348
439,limanowa,49.7059,20.422,-0.84,98,92,1.36,PL,1680918348
440,nyimba,-14.5566,30.8149,18.0,96,23,1.29,ZM,1680918348
441,pandan niog,6.2282,120.5631,27.73,78,61,6.04,PH,1680918349
442,oxapampa,-10.5775,-75.4017,14.71,100,100,0.22,PE,1680918349
443,belle fourche,44.6714,-103.8522,7.83,82,0,3.89,US,1680918350
444,ndele,8.4109,20.6473,24.96,57,4,1.98,CF,1680918350
445,lagunas,-5.2269,-75.6753,21.86,99,100,1.0,PE,1680918351
446,severnyy,50.677,36.5532,9.02,66,0,4.0,RU,1680918342
447,svogerslev,55.6342,12.0147,5.04,87,75,1.54,DK,1680918351
448,samarai,-10.6167,150.6667,28.72,73,100,1.0,PG,1680918352
449,okhotsk,59.3833,143.3,-8.98,69,13,3.67,RU,1680918352
450,misratah,32.3754,15.0925,14.7,71,100,5.68,LY,1680918353
451,oktyabrskoye,43.0645,44.7417,7.35,78,100,1.15,RU,1680918353
452,xining,36.6167,101.7667,5.36,39,0,1.41,CN,1680918354
453,kalmunai,7.4167,81.8167,26.94,73,84,1.38,LK,1680918354
454,nikolayevsk-na-amure,53.1406,140.73,-1.03,80,100,4.67,RU,1680918256
455,pacifica,37.6138,-122.4869,15.42,87,100,5.66,US,1680918355
456,gilbert,33.3528,-111.789,27.3,14,0,3.6,US,1680918175
457,sungai besar,3.6746,100.9867,27.05,82,69,0.78,MY,1680918356
458,pacific grove,36.6177,-121.9166,15.36,80,100,6.26,US,1680918356
459,bereznik,62.8551,42.7072,-6.16,97,27,1.28,RU,1680918357
460,el jicaro,14.9167,-89.9,25.46,70,9,2.05,GT,1680918357
461,mikropolis,41.1935,23.8157,2.28,87,13,1.23,GR,1680918358
462,muli,2.9167,73.5667,27.94,66,75,0.34,MV,1680918358
463,souillac,-20.5167,57.5167,23.21,94,40,2.06,MU,1680918359
464,japura,-0.3167,102.35,26.3,77,99,1.49,ID,1680918359
465,cienfuegos,22.1461,-80.4356,25.08,65,0,3.6,CU,1680918078
466,simpang,-1.2667,104.0833,28.69,70,66,0.88,ID,1680918360
467,traralgon,-38.1833,146.5333,17.84,60,47,5.34,AU,1680918299
468,lalin,42.7167,-8.1167,9.03,66,100,1.36,ES,1680918361
469,pangkalanbuun,-2.6833,111.6167,29.34,66,100,1.24,ID,1680918362
470,nantucket,41.2835,-70.0995,9.03,53,0,6.69,US,1680918141
471,husavik,66.0449,-17.3389,5.07,84,98,9.45,IS,1680918363
472,henties bay,-22.116,14.2845,15.55,93,52,2.56,NA,1680918363
473,salta,-24.7859,-65.4117,18.65,85,40,1.54,AR,1680918283
474,bahir dar,11.5936,37.3908,18.23,66,100,2.34,ET,1680918364
475,riihimaki,60.7377,24.7773,-1.92,82,62,1.35,FI,1680918364
476,tual,-5.6667,132.75,27.93,79,97,7.55,ID,1680918365
477,san rafael,-34.6177,-68.3301,22.07,45,84,2.94,AR,1680918365
478,mafeteng,-29.823,27.2374,13.12,55,30,1.86,LS,1680918366
479,maningrida,-12.0667,134.2667,29.59,70,71,5.64,AU,1680918336
480,avare,-23.0986,-48.9258,17.1,98,89,2.94,BR,1680918232
481,olinda,-8.0089,-34.8553,27.85,78,40,3.09,BR,1680918163
482,hastings,50.8552,0.5729,7.66,55,3,1.46,GB,1680918367
483,callaway,30.153,-85.5699,24.43,84,75,2.57,US,1680918368
484,moroni,-11.7022,43.2551,25.96,78,52,0.84,KM,1680918368
485,dori,14.0354,-0.0345,30.2,24,49,3.7,BF,1680918369
486,jiangyou,31.7667,104.7167,16.02,59,62,2.23,CN,1680918369
487,ercis,39.0287,43.3586,6.45,71,57,3.07,TR,1680918370
488,thunder bay,48.4001,-89.3168,0.99,55,20,5.66,CA,1680918339
489,bridgetown,13.1,-59.6167,26.27,65,20,9.77,BB,1680918351
490,gunjur,13.2019,-16.7339,22.04,88,0,4.63,GM,1680918371
491,herat,34.5,62.0,18.37,20,54,3.98,AF,1680918371
492,broome,42.2506,-75.833,1.49,60,100,0.89,US,1680918372
493,nouadhibou,20.931,-17.0347,17.99,88,66,6.17,MR,1680918344
494,mudgee,-32.5943,149.5871,16.55,65,92,6.14,AU,1680918373
495,corinto,37.9407,22.9573,9.38,78,100,1.0,GR,1680918373
496,mildura,-34.2,142.15,20.55,48,77,7.54,AU,1680918374
497,kaniv,49.7518,31.46,6.97,86,100,2.51,UA,1680918374
498,la palma,33.8464,-118.0467,21.56,57,0,4.63,US,1680918375
499,kununurra,-15.7667,128.7333,30.99,74,100,2.06,AU,1680918375
500,kyle,29.9984,-97.8715,12.42,97,100,4.63,US,1680918375
501,gizo,-8.103,156.8419,29.45,64,100,0.7,SB,1680918376
502,kawalu,-7.3817,108.2082,27.86,66,78,0.58,ID,1680918377
503,kuvandyk,51.4781,57.3552,-2.26,66,91,7.94,RU,1680918378
504,praia da vitoria,38.7333,-27.0667,12.14,76,20,4.2,PT,1680918379
505,curaca,-8.9903,-39.9094,27.51,52,100,4.03,BR,1680918379
506,bandhi,26.5861,68.3006,22.93,21,51,2.62,PK,1680918380
507,cockburn town,21.4612,-71.1419,24.75,72,98,6.7,TC,1680918380
508,chara,56.9064,118.2631,-2.35,68,85,0.72,RU,1680918381
509,trogir,43.5125,16.2517,8.03,71,0,3.09,HR,1680918381
510,kumano,34.3442,132.5894,13.51,43,6,7.6,JP,1680918382
511,tabou,4.423,-7.3528,25.89,88,100,2.19,CI,1680918382
512,vardo,70.3705,31.1107,0.99,93,75,8.23,NO,1680918279
513,saldanha,-33.0117,17.9442,15.12,81,65,8.96,ZA,1680918383
514,ouadda,8.0777,22.4007,19.45,75,89,0.18,CF,1680918384
515,yulara,-25.2406,130.9889,25.48,30,3,5.2,AU,1680918384
516,valladolid,41.5833,-4.6667,10.99,54,99,1.4,ES,1680918385
517,iisalmi,63.5592,27.1907,-0.98,94,97,1.49,FI,1680918385
518,kodinar,20.7903,70.7031,26.31,53,24,2.53,IN,1680918386
519,bilma,18.6853,12.9164,28.56,11,7,3.74,NE,1680918386
520,mogadishu,2.0371,45.3438,27.8,75,97,5.82,SO,1680918387
521,haines junction,60.7522,-137.5108,3.97,41,100,3.6,CA,1680918387
522,roald,62.5833,6.1333,6.29,73,45,2.6,NO,1680918388
523,jacqueville,5.2052,-4.4146,26.99,83,100,3.15,CI,1680918388
524,miyako,39.6367,141.9525,10.55,87,100,1.47,JP,1680918388
525,praya,14.9215,-23.5087,22.3,73,40,6.69,CV,1680918389
526,nalut,30.3333,10.85,11.31,64,0,8.37,LY,1680918389
527,hamilton,39.1834,-84.5333,9.93,51,0,4.12,US,1680918152
528,shamkhal,43.0596,47.3373,5.99,78,97,2.97,RU,1680918391
529,rocha,-34.4833,-54.3333,13.53,86,0,0.73,UY,1680918391
530,nyurba,63.2842,118.3319,-16.62,72,4,2.52,RU,1680918392
531,ewa beach,21.3156,-158.0072,26.97,70,75,4.63,US,1680918392
532,batie,9.8833,-2.9167,24.8,75,97,1.59,BF,1680918393
533,pimentel,-6.8367,-79.9342,28.16,78,75,3.6,PE,1680918393
534,saint-augustin,51.226,-58.6502,-1.56,63,92,8.34,CA,1680918394
535,manaus,-3.1019,-60.025,27.27,74,0,1.54,BR,1680918394
536,big spring,32.2504,-101.4787,18.25,39,75,4.12,US,1680918149
537,kasimov,54.9411,41.3953,1.23,84,7,2.79,RU,1680918395
538,claresholm,50.0333,-113.5852,12.77,40,100,3.6,CA,1680918396
539,viedma,-40.8135,-62.9967,15.07,72,100,3.28,AR,1680918396
540,malinyi,-8.9333,36.1333,20.75,98,95,0.47,TZ,1680918396
541,mahdasht,35.7299,50.8111,14.12,34,0,5.14,IR,1680918397
542,margate,51.3813,1.3862,5.94,92,5,2.76,GB,1680918397
543,loralai,30.3705,68.598,15.4,48,0,1.56,PK,1680918252
544,sulina,45.1559,29.6536,5.99,76,41,1.51,RO,1680918398
545,huanuco,-9.9329,-76.2415,16.7,95,100,2.2,PE,1680918399
546,kudahuvadhoo,2.6708,72.8944,27.68,67,81,0.49,MV,1680918400
547,roros,62.5747,11.3842,-9.09,86,37,0.0,NO,1680918400
548,comodoro rivadavia,-45.8667,-67.5,7.92,71,0,1.54,AR,1680918226
549,althofen,46.8818,14.4676,4.14,78,100,0.88,AT,1680918401
550,fukue,32.6881,128.8419,13.2,47,20,8.75,JP,1680918402
551,port-gentil,-0.7193,8.7815,27.56,82,100,4.58,GA,1680918402
552,skjervoy,70.0311,20.9714,1.0,91,100,4.1,NO,1680918403
553,coquimbo,-29.9533,-71.3436,15.85,94,100,1.03,CL,1680918283
554,juneau,58.3019,-134.4197,5.68,97,100,2.57,US,1680918167
555,aklavik,68.2191,-135.0107,-13.2,90,100,3.51,CA,1680918404
556,alofi,-19.0595,-169.9187,28.94,70,23,5.14,NU,1680918351
557,matsubase,32.65,130.6667,13.22,34,0,6.27,JP,1680918405
558,jadu,31.953,12.0261,9.47,75,77,3.39,LY,1680918406
559,yamada,39.4667,141.95,10.92,86,100,0.99,JP,1680918406
560,concordia,-31.393,-58.0209,19.32,80,7,1.79,AR,1680918406
561,veraval,20.9,70.3667,25.83,61,3,3.59,IN,1680918407
562,trelew,-43.249,-65.3051,12.61,53,100,6.04,AR,1680918407
563,harper,4.375,-7.7169,26.26,85,98,2.37,LR,1680918408
564,acarau,-2.8856,-40.12,25.14,87,71,3.38,BR,1680918408
565,la rioja,42.25,-2.5,4.88,40,91,2.89,ES,1680918409
566,ucar,40.519,47.6542,9.1,71,45,1.28,AZ,1680918409
567,teahupoo,-17.8333,-149.2667,28.98,76,100,9.72,PF,1680918409
568,nueva loja,0.0847,-76.8828,21.61,98,64,0.56,EC,1680918410
569,anchorage,61.2181,-149.9003,0.73,52,100,2.57,US,1680918410
570,mahanoro,-19.9,48.8,22.67,88,100,2.1,MG,1680918411
571,kindersley,51.4668,-109.1682,1.01,86,75,10.29,CA,1680918412
