City_ID,City,Lat,Lng,Max Temp,Humidity,Cloudiness,Wind Speed,Country,Date
0,betioky,-23.7167,44.3833,23.08,78,4,1.46,MG,1681015737
1,hays,30.0502,-98.0336,14.6,88,49,2.05,US,1681015552
2,tahoua,14.8888,5.2692,26.74,15,53,5.22,NE,1681015738
3,kavieng,-2.5744,150.7967,26.35,85,97,6.02,PG,1681015738
4,new norfolk,-42.7826,147.0587,10.95,63,54,3.58,AU,1681015738
5,tiksi,71.6872,128.8694,-16.02,84,100,0.62,RU,1681015739
6,albany,42.6001,-73.9662,2.97,54,49,0.89,US,1681015537
7,nanortalik,60.1432,-45.2371,-1.85,92,100,3.94,GL,1681015740
8,fort nelson,58.8053,-122.7002,6.77,39,40,2.06,CA,1681015502
9,sitka,57.0531,-135.33,6.94,70,100,4.63,US,1681015741
10,thompson,55.7435,-97.8558,3.09,56,0,3.6,CA,1681015741
11,angoche,-16.2325,39.9086,26.99,80,17,1.29,MZ,1681015742
12,codrington,-38.2667,141.9667,13.38,65,100,6.45,AU,1681015743
13,busselton,-33.65,115.3333,21.69,53,29,3.44,AU,1681015743
14,port elizabeth,-33.918,25.5701,15.16,93,100,9.26,ZA,1681015744
15,hilo,19.7297,-155.09,25.16,83,40,2.57,US,1681015497
16,rikitea,-23.1203,-134.9692,24.88,62,8,6.19,PF,1681015745
17,bluff,-46.6,168.3333,16.56,69,46,3.46,NZ,1681015745
18,tuatapere,-46.1333,167.6833,15.23,67,85,1.71,NZ,1681015746
19,lebu,-37.6167,-73.65,11.26,84,69,3.17,CL,1681015746
20,margate,51.3813,1.3862,7.61,91,72,0.45,GB,1681015747
21,nelson bay,-32.7167,152.15,23.89,46,3,5.36,AU,1681015747
22,port keats,-14.25,129.55,29.73,69,98,6.39,AU,1681015748
23,atuona,-9.8,-139.0333,27.34,73,3,5.45,PF,1681015490
24,chokurdakh,70.6333,147.9167,-16.49,83,9,5.32,RU,1681015748
25,bambanglipuro,-7.95,110.2833,29.59,65,27,4.03,ID,1681015749
26,ribeira grande,38.5167,-28.7,15.99,95,100,5.36,PT,1681015749
27,brownsville,25.9018,-97.4975,18.97,93,100,2.57,US,1681015564
28,nikolskoye,59.7035,30.7861,-0.05,95,100,2.09,RU,1681015750
29,dikson,73.5069,80.5464,-22.46,88,99,2.96,RU,1681015751
30,felanitx,39.4696,3.1483,8.96,72,5,1.21,ES,1681015751
31,urumqi,43.801,87.6005,10.53,54,75,2.0,CN,1681015752
32,qaanaaq,77.484,-69.3632,-22.98,51,9,2.34,GL,1681015752
33,punta arenas,-53.15,-70.9167,3.1,68,9,10.87,CL,1681015472
34,omboue,-1.5746,9.2618,25.6,91,100,2.09,GA,1681015753
35,calama,-22.4667,-68.9333,10.27,43,0,2.57,CL,1681015447
36,honiara,-9.4333,159.95,28.81,77,99,1.51,SB,1681015754
37,batesville,35.7698,-91.641,14.23,73,100,3.6,US,1681015488
38,constitucion,-35.3333,-72.4167,13.25,59,6,3.71,CL,1681015642
39,vaini,-21.2,-175.2,29.09,79,20,5.14,TO,1681015755
40,hambantota,6.1241,81.1185,30.19,79,20,4.63,LK,1681015756
41,saskylakh,71.9167,114.0833,-18.85,90,100,4.26,RU,1681015756
42,bunia,1.5667,30.25,19.89,84,100,1.91,CD,1681015757
43,barrow,71.2906,-156.7887,-26.99,83,0,2.57,US,1681015757
44,ferkessedougou,9.6,-5.2,25.15,68,99,1.68,CI,1681015757
45,butaritari,3.0707,172.7902,27.19,83,100,5.5,KI,1681015758
46,sola,-13.8833,167.55,28.73,70,8,3.98,VU,1681015759
47,iracoubo,5.4802,-53.2011,24.84,82,81,3.08,GF,1681015759
48,cherskiy,68.75,161.3,-14.63,89,59,2.69,RU,1681015760
49,wajid,3.8093,43.2471,27.32,58,0,7.19,SO,1681015760
50,hualmay,-11.0964,-77.6139,24.74,80,98,4.44,PE,1681015760
51,cape town,-33.9258,18.4232,14.95,71,0,3.09,ZA,1681015761
52,castro,-24.7911,-50.0119,15.86,98,100,3.33,BR,1681015761
53,batagay-alyta,67.8006,130.4114,-13.23,87,100,1.2,RU,1681015762
54,ushuaia,-54.8,-68.3,1.81,87,40,11.32,AR,1681015753
55,tuktoyaktuk,69.4541,-133.0374,-21.0,84,20,3.6,CA,1681015763
56,northam,51.0333,-4.2167,7.01,90,97,6.63,GB,1681015763
57,mount isa,-20.7333,139.5,31.87,18,3,3.6,AU,1681015764
58,hithadhoo,-0.6,73.0833,27.69,68,23,0.49,MV,1681015764
59,omsukchan,62.5333,155.8,-8.58,71,2,0.91,RU,1681015765
60,dwarka,22.2394,68.9678,27.34,53,27,4.98,IN,1681015765
61,yellowknife,62.456,-114.3525,1.29,80,75,4.12,CA,1681015766
62,matay,28.419,30.7792,26.64,15,51,2.23,EG,1681015766
63,khatanga,71.9667,102.5,-19.69,88,100,4.27,RU,1681015766
64,kapuskasing,49.4169,-82.4331,-2.95,79,0,2.06,CA,1681015767
65,vanino,49.0869,140.2543,5.86,42,98,1.92,RU,1681015767
66,hobart,-42.8794,147.3294,11.14,75,40,9.77,AU,1681015676
67,arraial do cabo,-22.9661,-42.0278,23.71,84,100,4.43,BR,1681015768
68,upernavik,72.7868,-56.1549,-20.88,94,100,6.01,GL,1681015769
69,elbistan,38.2059,37.1983,8.85,67,87,0.7,TR,1681015769
70,bredasdorp,-34.5322,20.0403,11.42,78,1,1.83,ZA,1681015770
71,roald,62.5833,6.1333,5.74,86,0,3.09,NO,1681015770
72,hasaki,35.7333,140.8333,17.94,28,0,4.1,JP,1681015770
73,avarua,-21.2078,-159.775,26.03,83,20,2.06,CK,1681015754
74,namibe,-15.1961,12.1522,23.28,86,57,0.71,AO,1681015771
75,kodiak,57.79,-152.4072,-4.27,39,0,7.2,US,1681015513
76,aksu,41.1231,80.2644,18.73,11,3,1.38,CN,1681015772
77,yulara,-25.2406,130.9889,32.21,20,27,4.16,AU,1681015773
78,bengkulu,-3.8004,102.2655,29.05,66,76,3.4,ID,1681015773
79,bethel,41.3712,-73.414,5.17,61,0,2.06,US,1681015716
80,mataura,-46.1927,168.8643,16.38,60,57,1.77,NZ,1681015774
81,norman wells,65.282,-126.8329,-2.98,74,75,2.06,CA,1681015775
82,torbay,47.6666,-52.7314,-4.23,66,100,8.23,CA,1681015775
83,marawi,7.9986,124.2928,25.03,78,100,2.93,PH,1681015776
84,les cayes,18.2,-73.75,23.23,79,0,1.69,HT,1681015776
85,awjilah,29.1081,21.2869,17.38,61,62,5.6,LY,1681015777
86,yeppoon,-23.1333,150.7333,30.88,30,2,0.75,AU,1681015777
87,port alfred,-33.5906,26.891,15.1,98,100,0.89,ZA,1681015778
88,pevek,69.7008,170.3133,-22.72,93,91,1.02,RU,1681015778
89,kedrovyy,56.1667,91.8167,-4.77,84,100,7.18,RU,1681015779
90,tasiilaq,65.6145,-37.6368,1.4,97,100,14.28,GL,1681015779
91,mackay,-21.15,149.2,27.29,45,28,3.52,AU,1681015780
92,isabela,6.7085,121.9711,31.03,70,40,3.0,PH,1681015780
93,srednekolymsk,67.45,153.6833,-6.59,81,68,5.34,RU,1681015780
94,aktash,50.3,87.7333,-6.31,53,88,3.33,RU,1681015781
95,georgetown,5.4112,100.3354,32.97,55,20,2.57,MY,1681015781
96,marsa matruh,31.3525,27.2453,18.11,88,40,2.57,EG,1681015782
97,ponta delgada,37.7333,-25.6667,15.4,82,75,4.63,PT,1681015782
98,kavaratti,10.5669,72.642,27.92,71,0,1.05,IN,1681015782
99,flin flon,54.7682,-101.865,0.64,92,100,3.82,CA,1681015783
100,pacific grove,36.6177,-121.9166,12.82,81,0,0.0,US,1681015783
101,evensk,61.95,159.2333,-5.57,77,1,3.5,RU,1681015784
102,bandar-e lengeh,26.5579,54.8807,24.06,88,30,2.06,IR,1681015784
103,urucara,-2.5364,-57.76,22.85,98,85,1.03,BR,1681015785
104,kichera,55.9375,110.0997,-3.77,63,68,1.18,RU,1681015785
105,alofi,-19.0595,-169.9187,28.94,79,29,5.66,NU,1681015786
106,staritsa,56.5075,34.9354,5.75,72,78,1.65,RU,1681015786
107,jamestown,42.097,-79.2353,1.8,54,0,0.45,US,1681015787
108,victoria,22.2855,114.1577,21.65,79,61,0.89,HK,1681015788
109,acapulco,16.8634,-99.8901,26.9,74,0,2.06,MX,1681015788
110,pisco,-13.7,-76.2167,23.03,88,0,5.14,PE,1681015789
111,mitchell,43.7094,-98.0298,11.52,70,0,1.54,US,1681015789
112,requena,39.4883,-1.1004,6.96,76,68,1.26,ES,1681015790
113,hermanus,-34.4187,19.2345,13.61,74,0,1.24,ZA,1681015790
114,mackenzie,55.2999,-123.1698,4.12,75,40,1.54,CA,1681015510
115,karasjok,69.4719,25.5112,-0.13,96,94,1.24,NO,1681015791
116,nautla,20.2167,-96.7833,20.62,89,100,3.94,MX,1681015572
117,riyadh,24.6877,46.7219,21.08,22,0,1.01,SA,1681015792
118,griffith,41.5284,-87.4237,10.27,59,27,3.05,US,1681015719
119,emilio carranza,19.9711,-96.6114,21.63,86,98,4.21,MX,1681015792
120,sao filipe,14.8961,-24.4956,21.42,74,81,5.28,CV,1681015793
121,puerto ayora,-0.7393,-90.3518,25.86,91,10,0.45,EC,1681015793
122,rudnyy,52.9594,63.1206,5.13,33,0,2.46,KZ,1681015794
123,el rusio,14.4667,-86.3667,20.35,70,29,1.19,HN,1681015794
124,la ronge,55.1001,-105.2842,4.14,65,75,3.6,CA,1681015537
125,karratha,-20.7377,116.8463,33.44,28,100,5.49,AU,1681015795
126,salym,60.0625,71.4789,-5.27,66,76,3.18,RU,1681015795
127,ponta do sol,32.6667,-17.1,17.35,72,97,3.07,PT,1681015796
128,raudeberg,61.9875,5.1352,2.7,75,26,2.73,NO,1681015797
129,klaksvik,62.2266,-6.589,6.51,86,49,12.9,FO,1681015798
130,hami,42.8,93.45,16.94,16,96,1.45,CN,1681015798
131,kimparana,12.8347,-4.9244,28.28,36,98,2.66,ML,1681015798
132,krasnoye,49.9145,24.6134,3.34,87,73,1.19,UA,1681015799
133,komsomolskiy,40.4272,71.7189,17.4,63,100,2.06,UZ,1681015799
134,cabo san lucas,22.8909,-109.9124,22.61,57,15,4.73,MX,1681015784
135,north bend,43.4065,-124.2243,11.95,73,100,2.06,US,1681015800
136,zyryanka,65.75,150.85,-5.65,75,96,4.62,RU,1681015801
137,middelburg,-25.7751,29.4648,16.8,54,19,2.61,ZA,1681015801
138,faanui,-16.4833,-151.75,28.63,74,66,8.78,PF,1681015802
139,san patricio,28.017,-97.5169,18.97,89,61,2.7,US,1681015595
140,port pirie,-33.1833,138.0167,20.57,46,57,5.59,AU,1681015803
141,plettenberg bay,-34.0527,23.3716,13.94,87,100,2.44,ZA,1681015803
142,oda,35.1833,132.5,16.43,48,6,4.99,JP,1681015804
143,carnarvon,-24.8667,113.6333,24.17,53,12,6.88,AU,1681015805
144,clyde river,70.4692,-68.5914,-20.87,65,0,7.2,CA,1681015805
145,chuy,-33.6971,-53.4616,16.44,87,6,2.32,UY,1681015806
146,awbari,26.5921,12.7805,13.6,69,72,3.27,LY,1681015806
147,tazovskiy,67.4667,78.7,-21.58,86,100,2.51,RU,1681015807
148,esso,55.9333,158.7,-0.89,94,100,2.26,RU,1681015807
149,jeremie,18.65,-74.1167,23.47,77,6,1.18,HT,1681015808
150,flinders,-34.5833,150.8552,21.77,45,43,4.02,AU,1681015808
151,sorong,-0.8833,131.25,29.18,70,53,4.99,ID,1681015808
152,carutapera,-1.195,-46.02,23.23,95,89,0.61,BR,1681015809
153,noumea,-22.2763,166.4572,28.99,70,16,5.23,NC,1681015259
154,oranjemund,-28.55,16.4333,12.45,86,2,4.82,NA,1681015810
155,katangli,51.7102,143.2326,0.62,69,99,8.71,RU,1681015811
156,dalby,-27.1833,151.2667,24.56,27,0,9.57,AU,1681015811
157,camana,-16.6228,-72.7111,22.33,82,88,1.65,PE,1681015812
158,rohnert park,38.3396,-122.7011,12.3,75,100,2.06,US,1681015593
159,fortuna,40.5982,-124.1573,10.55,80,67,2.47,US,1681015124
160,saint-philippe,-21.3585,55.7679,27.77,81,58,5.09,RE,1681015813
161,makakilo city,21.3469,-158.0858,26.18,66,75,6.17,US,1681015813
162,talnakh,69.4865,88.3972,-21.3,87,35,1.31,RU,1681015652
163,port-gentil,-0.7193,8.7815,27.05,81,100,2.42,GA,1681015679
164,constantine,36.365,6.6147,4.67,70,0,0.0,DZ,1681015815
165,kozhva,65.1073,57.0459,0.72,97,100,5.46,RU,1681015815
166,merritt island,28.5392,-80.672,24.44,86,40,4.63,US,1681015816
167,cidreira,-30.1811,-50.2056,21.12,83,98,5.89,BR,1681015557
168,banda aceh,5.5577,95.3222,30.78,61,99,5.4,ID,1681015817
169,vanimo,-2.6741,141.3028,26.35,80,100,1.23,PG,1681015817
170,ovalle,-30.5983,-71.2003,19.37,67,0,0.45,CL,1681015753
171,saint-joseph,-21.3667,55.6167,27.21,77,61,4.17,RE,1681015819
172,severo-kurilsk,50.6789,156.125,1.91,99,100,4.15,RU,1681015819
173,marsaxlokk,35.8419,14.5431,14.49,82,20,1.54,MT,1681015820
174,filadelfia,39.9523,-75.1638,5.94,66,100,1.54,US,1681015654
175,tapes,-30.6733,-51.3958,21.06,80,88,4.78,BR,1681015822
176,coihaique,-45.5752,-72.0662,9.34,97,85,2.91,CL,1681015823
177,jakar,27.5492,90.7525,16.77,44,46,2.61,BT,1681015823
178,talcahuano,-36.7167,-73.1167,10.82,93,0,2.57,CL,1681015824
179,anadyr,64.75,177.4833,-16.72,85,20,5.0,RU,1681015825
180,ashland,40.8167,-82.2665,4.3,72,2,2.48,US,1681015825
181,havelock,34.8791,-76.9013,10.99,91,100,7.72,US,1681015625
182,esperance,-33.8667,121.9,17.55,78,96,4.6,AU,1681015826
183,naryan-mar,67.6713,53.087,-1.81,89,100,8.76,RU,1681015826
184,vestmannaeyjar,63.4427,-20.2734,7.8,85,100,16.66,IS,1681015827
185,zarand,30.8127,56.564,19.8,24,0,0.68,IR,1681015827
186,namatanai,-3.6667,152.4333,28.54,72,46,3.75,PG,1681015828
187,east london,-33.0153,27.9116,19.52,94,75,2.57,ZA,1681015598
188,kapaa,22.0752,-159.319,25.99,89,100,5.66,US,1681015829
189,kaitangata,-46.2817,169.8464,14.51,75,50,6.75,NZ,1681015829
190,vila velha,-20.3297,-40.2925,23.97,94,0,1.54,BR,1681015803
191,san carlos,9.6612,-68.5827,25.98,65,97,1.43,VE,1681015830
192,provideniya,64.3833,-173.3,-17.31,91,99,2.53,RU,1681015831
193,berlevag,70.8578,29.0864,2.0,86,100,7.2,NO,1681015831
194,puerto leguizamo,-0.1934,-74.7819,20.37,100,98,0.77,CO,1681015832
195,slave lake,55.2834,-114.769,8.99,46,100,2.57,CA,1681015832
196,tessalit,20.1986,1.0114,21.75,20,98,4.21,ML,1681015833
197,tilichiki,60.4667,166.1,-6.2,90,100,3.28,RU,1681015833
198,arnedo,42.2167,-2.1,3.72,65,97,0.48,ES,1681015834
199,richards bay,-28.783,32.0377,22.35,87,49,1.59,ZA,1681015834
200,garissa,-0.4536,39.6401,27.52,69,86,4.07,KE,1681015834
201,port hardy,50.6996,-127.4199,8.1,87,75,3.09,CA,1681015541
202,bombay,19.0144,72.8479,33.99,38,20,2.06,IN,1681015589
203,saint george,37.1041,-113.5841,16.33,38,0,2.06,US,1681015836
204,kokopo,-4.352,152.2633,27.52,77,98,0.36,PG,1681015836
205,eureka,40.8021,-124.1637,12.08,86,67,0.45,US,1681015837
206,uige,-7.6087,15.0613,19.55,95,100,0.86,AO,1681015837
207,roverud,60.2521,12.055,1.35,91,100,1.72,NO,1681015838
208,laguna,38.421,-121.4238,15.08,53,0,0.0,US,1681015561
209,comodoro rivadavia,-45.8667,-67.5,16.92,29,0,5.66,AR,1681015839
210,iqaluit,63.7506,-68.5145,-26.15,76,0,2.57,CA,1681015839
211,port moresby,-9.4431,147.1797,29.68,70,75,4.12,PG,1681015840
212,tirur,10.9,75.9167,30.55,53,2,1.06,IN,1681015840
213,poum,-20.2333,164.0167,26.48,69,6,3.64,NC,1681015841
214,beringovskiy,63.05,179.3167,-12.14,85,44,0.68,RU,1681015841
215,zhanaozen,43.3,52.8,13.13,69,100,5.16,KZ,1681015842
216,saint-pierre,-21.3393,55.4781,27.82,65,0,3.6,RE,1681015842
217,naze,28.3667,129.4833,17.51,54,9,2.39,JP,1681015842
218,guerrero negro,27.9769,-114.0611,13.92,86,5,4.86,MX,1681015843
219,salalah,17.0151,54.0924,28.05,74,40,1.03,OM,1681015843
220,palmer,42.1584,-72.3287,3.38,68,0,0.0,US,1681015805
221,leningradskiy,69.3833,178.4167,-18.17,93,100,9.38,RU,1681015846
222,mkushi,-13.6202,29.3939,17.64,94,78,1.65,ZM,1681015846
223,barabai,-2.5833,115.3833,28.86,77,86,1.63,ID,1681015847
224,mizque,-17.941,-65.3402,13.31,91,100,0.81,BO,1681015847
225,pochutla,15.7432,-96.4661,27.12,61,20,1.19,MX,1681015848
226,auki,-8.7676,160.7034,28.64,73,99,1.15,SB,1681015848
227,petropavlovsk-kamchatskiy,53.0452,158.6483,0.33,100,100,1.0,RU,1681015849
228,baculin,7.4525,126.5842,29.46,69,100,5.89,PH,1681015849
229,salinas,36.6777,-121.6555,13.45,76,0,3.09,US,1681015850
230,moron,-34.6534,-58.6198,20.86,85,27,1.89,AR,1681015850
231,bani walid,31.7566,13.9942,10.57,88,0,1.73,LY,1681015851
232,baruun-urt,46.6806,113.2792,13.53,14,92,8.94,MN,1681015851
233,necochea,-38.5473,-58.7368,17.43,58,25,6.19,AR,1681015851
234,mengcheng,33.2579,116.5655,21.5,46,0,6.27,CN,1681015852
235,longyearbyen,78.2186,15.6401,-4.09,93,75,2.06,SJ,1681015852
236,kimbe,-5.5502,150.1429,28.21,82,100,1.26,PG,1681015853
237,gainesville,29.6516,-82.3248,21.12,78,100,3.09,US,1681015669
238,pangai,-19.8,-174.35,26.84,76,13,5.19,TO,1681015854
239,bakchar,57.0186,82.0711,-7.45,50,4,5.1,RU,1681015854
240,arman,59.7,150.1667,-1.1,67,1,1.08,RU,1681015855
241,cape coast,5.1053,-1.2466,27.01,83,100,4.65,GH,1681015855
242,narsaq,60.9167,-46.05,-0.88,84,99,1.81,GL,1681015855
243,carnduff,49.1667,-101.8009,-5.35,98,86,1.92,CA,1681015856
244,dingle,10.9995,122.6711,31.23,54,100,5.91,PH,1681015856
245,micula,47.9,22.95,4.38,85,29,1.39,RO,1681015857
246,barcelos,41.5388,-8.6151,13.84,76,21,1.1,PT,1681015857
247,kaeo,-35.1,173.7833,20.18,92,100,8.47,NZ,1681015858
248,zhigansk,66.7697,123.3711,-16.02,72,99,4.86,RU,1681015858
249,pakdasht,35.4752,51.6807,18.0,20,61,8.58,IR,1681015858
250,tamala,52.541,43.2515,5.73,55,0,2.3,RU,1681015859
251,kemijarvi,66.7131,27.4306,0.57,96,97,0.9,FI,1681015859
252,scottsbluff,41.8666,-103.6672,14.62,46,100,4.12,US,1681015860
253,trang,7.5,99.5,35.47,51,20,1.54,TH,1681015860
254,geraldton,-28.7667,114.6,23.23,46,0,5.14,AU,1681015861
255,san vicente,-26.6167,-54.1333,15.26,98,0,0.86,AR,1681015861
256,lahij,13.1667,44.5833,25.02,72,31,4.09,YE,1681015862
257,adrar,20.5022,-10.0711,24.36,20,100,2.11,MR,1681015862
258,lorengau,-2.0226,147.2712,26.04,87,97,2.34,PG,1681015863
259,quesnel,52.9999,-122.5029,8.28,46,0,2.06,CA,1681015863
260,qaqortoq,60.7167,-46.0333,-1.99,85,100,1.53,GL,1681015864
261,sabha,27.0377,14.4283,13.29,72,63,7.23,LY,1681015864
262,souillac,-20.5167,57.5167,24.21,94,75,0.0,MU,1681015865
263,mahebourg,-20.4081,57.7,27.92,94,75,0.0,MU,1681015865
264,kinkala,-4.3614,14.7644,21.01,96,100,0.6,CG,1681015866
265,grand gaube,-20.0064,57.6608,27.99,71,97,3.13,MU,1681015866
266,grand-santi,4.25,-54.3833,20.97,97,46,0.8,GF,1681015866
267,brewster,41.3973,-73.6171,5.31,63,0,2.06,US,1681015867
268,cockburn town,21.4612,-71.1419,25.16,78,0,7.54,TC,1681015867
269,ahipara,-35.1667,173.1667,19.77,90,88,8.38,NZ,1681015868
270,bambous virieux,-20.3428,57.7575,27.9,94,75,0.0,MU,1681015868
271,ramshir,30.8946,49.4092,22.86,18,7,5.95,IR,1681015869
272,olafsvik,64.8945,-23.7142,5.86,76,100,8.38,IS,1681015870
273,at-bashi,41.1702,75.8106,8.17,57,98,1.76,KG,1681015870
274,mendoza,-32.8908,-68.8272,21.74,64,0,0.0,AR,1681015871
275,santa maria,-29.6842,-53.8069,18.65,85,68,3.41,BR,1681015727
276,zavitinsk,50.1167,129.45,11.44,25,100,5.2,RU,1681015872
277,mar del plata,-38.0023,-57.5575,17.27,89,0,4.12,AR,1681015872
278,mayo,38.8876,-76.5119,7.97,72,0,2.57,US,1681015873
279,saldanha,-33.0117,17.9442,9.03,81,0,4.58,ZA,1681015873
280,berberati,4.2612,15.7922,19.9,98,100,1.36,CF,1681015874
281,guiratinga,-16.3494,-53.7583,20.23,95,100,0.3,BR,1681015874
282,andrews,32.3187,-102.5457,18.59,55,0,2.24,US,1681015875
283,kelvington,52.1667,-103.5343,-0.71,98,50,4.29,CA,1681015875
284,asau,46.4333,26.4,0.71,88,99,0.49,RO,1681015876
285,bull savanna,17.8868,-77.5902,22.28,84,35,2.47,JM,1681015876
286,dharchula,29.85,80.5333,24.62,27,5,2.82,IN,1681015877
287,pemangkat,1.1667,108.9667,28.59,71,99,4.14,ID,1681015877
288,sao jose da coroa grande,-8.8978,-35.1478,25.35,85,100,0.68,BR,1681015877
289,lake havasu city,34.4839,-114.3224,23.37,20,0,2.06,US,1681015878
290,vila franca do campo,37.7167,-25.4333,15.23,85,100,3.25,PT,1681015878
291,sapa,5.1544,120.3241,29.41,64,35,2.51,PH,1681015879
292,kushima,31.4583,131.2333,16.88,45,1,2.8,JP,1681015879
293,hobyo,5.3505,48.5268,29.37,67,9,6.66,SO,1681015880
294,acari,-15.4311,-74.6158,23.1,85,35,0.95,PE,1681015880
295,avera,33.194,-82.5271,7.03,95,100,6.31,US,1681015881
296,southbridge,42.0751,-72.0334,3.21,66,100,0.89,US,1681015881
297,antalaha,-14.9003,50.2788,26.32,78,19,2.11,MG,1681015881
298,rocha,-34.4833,-54.3333,14.42,93,1,2.42,UY,1681015882
299,deputatskiy,69.3,139.9,-17.98,92,100,2.95,RU,1681015882
300,tandil,-37.3217,-59.1332,13.59,75,40,2.9,AR,1681015883
301,bagdarin,54.4333,113.6,0.34,30,64,2.3,RU,1681015883
302,manzhouli,49.6,117.4333,11.72,27,100,5.02,CN,1681015884
303,forestville,38.8451,-76.875,7.01,67,0,2.06,US,1681015884
304,koson,39.0375,65.585,18.18,23,100,6.51,UZ,1681015885
305,farafangana,-22.8167,47.8333,24.24,87,98,1.23,MG,1681015885
306,znamenskoye,57.1281,73.8282,-1.46,56,65,1.88,RU,1681015886
307,tateyama,34.9833,139.8667,12.21,47,4,4.1,JP,1681015886
308,santa lucia,27.9117,-15.5407,12.62,72,75,3.6,ES,1681015887
309,gezing,47.9178,13.1299,3.39,98,75,1.03,AT,1681015887
310,daphne,30.6035,-87.9036,15.76,84,100,6.69,US,1681015888
311,airai,-8.9266,125.4092,19.02,82,100,2.47,TL,1681015888
312,hit,33.6416,42.8251,22.58,24,52,3.55,IQ,1681015889
313,puerto quijarro,-17.7833,-57.7667,21.63,84,81,0.8,BO,1681015889
314,bicas,-21.7253,-43.0594,18.68,99,100,1.49,BR,1681015890
315,aswan,24.0934,32.907,28.22,25,37,5.38,EG,1681015890
316,charlotte,35.2271,-80.8431,5.85,93,100,5.36,US,1681015889
317,ormara,25.2088,64.6357,25.46,56,53,3.46,PK,1681015891
318,port macquarie,-31.4333,152.9167,26.05,33,0,5.0,AU,1681015891
319,qui nhon,13.7667,109.2333,27.73,72,34,6.96,VN,1681015892
320,kilembe,0.2,30.0,18.33,77,97,1.1,UG,1681015892
321,cururupu,-1.8283,-44.8683,22.55,99,100,0.62,BR,1681015892
322,husavik,66.0449,-17.3389,2.99,86,74,5.26,IS,1681015893
323,vagur,61.4732,-6.8119,6.77,87,98,12.99,FO,1681015893
324,sao gabriel da cachoeira,-0.1303,-67.0892,22.17,98,45,0.82,BR,1681015894
325,itoman,26.1247,127.6694,21.21,49,40,4.63,JP,1681015894
326,los andes,-32.8337,-70.5983,16.67,28,0,0.68,CL,1681015895
327,linden,6.0,-58.3,21.11,91,100,1.09,GY,1681015895
328,desaguadero,-16.5656,-69.0417,6.56,78,93,1.95,PE,1681015896
329,hofn,64.2539,-15.2082,6.93,94,45,4.18,IS,1681015896
330,lompoc,34.6391,-120.4579,14.45,88,100,4.12,US,1681015897
331,padang,-0.9492,100.3543,29.03,70,85,2.59,ID,1681015897
332,kandrian,-6.2167,149.55,29.03,74,100,2.7,PG,1681015897
333,iwanai,42.9744,140.5089,4.84,80,93,4.47,JP,1681015898
334,faya,18.3851,42.4509,14.06,43,2,1.64,SA,1681015898
335,sinnamary,5.3833,-52.95,24.65,85,74,3.11,GF,1681015899
336,kirakira,-10.4544,161.9205,29.42,74,92,3.18,SB,1681015899
337,suruc,36.9761,38.425,14.94,50,100,3.25,TR,1681015900
338,rundu,-17.9333,19.7667,18.88,59,90,1.99,NA,1681015900
339,grindavik,63.8424,-22.4338,8.26,81,75,14.4,IS,1681015900
340,amol,36.4696,52.3507,14.4,59,46,3.3,IR,1681015901
341,shubarshi,48.5872,57.1869,6.78,36,87,6.49,KZ,1681015901
342,kizilskoye,52.7255,58.8937,3.81,33,0,1.31,RU,1681015902
343,betera,39.5833,-0.45,13.27,89,0,1.54,ES,1681015902
344,lagoa,39.05,-27.9833,16.04,86,100,8.5,PT,1681015903
345,monkey bay,-14.0728,34.9201,23.31,83,93,2.74,MW,1681015903
346,muli,2.9167,73.5667,28.34,70,21,2.25,MV,1681015903
347,atar,20.5169,-13.0499,20.95,25,1,1.39,MR,1681015904
348,talaya,61.3833,152.75,-8.03,69,4,1.2,RU,1681015904
349,okhotsk,59.3833,143.3,-4.49,66,2,1.83,RU,1681015905
350,lerwick,60.1545,-1.1494,7.0,92,29,7.79,GB,1681015905
351,saurimo,-9.6608,20.3916,16.54,96,97,1.13,AO,1681015906
352,san juan,-31.5375,-68.5364,23.63,53,0,4.93,AR,1681015906
353,tezu,27.9167,96.1667,32.82,23,55,2.07,IN,1681015906
354,bowen,-20.0167,148.2333,29.44,39,11,3.89,AU,1681015907
355,ihosy,-22.4,46.1167,20.73,87,83,2.61,MG,1681015908
356,colac,-38.3333,143.5833,13.98,59,94,5.41,AU,1681015909
357,de-kastri,51.4667,140.7833,2.65,60,43,4.44,RU,1681015909
358,bathsheba,13.2167,-59.5167,26.34,78,40,9.26,BB,1681015910
359,matara,5.9485,80.5353,30.78,55,51,3.36,LK,1681015910
360,leh,34.1667,77.5833,-2.84,46,0,0.86,IN,1681015911
361,canutama,-6.5339,-64.3831,22.37,99,97,0.25,BR,1681015911
362,joshimath,30.5667,79.5667,18.41,32,1,2.83,IN,1681015911
363,port lincoln,-34.7333,135.8667,17.17,62,94,4.7,AU,1681015912
364,mongoumba,3.6415,18.5936,21.28,94,91,1.19,CF,1681015912
365,kurmanayevka,52.5093,52.0675,5.65,40,30,4.48,RU,1681015913
366,diapaga,12.0708,1.7889,30.8,18,96,0.11,BF,1681015913
367,diamantino,-14.4086,-56.4461,21.36,96,90,0.84,BR,1681015914
368,antofagasta,-23.65,-70.4,18.6,89,28,0.74,CL,1681015892
369,ilulissat,69.2167,-51.1,-5.99,86,100,7.72,GL,1681015914
370,touros,-5.1989,-35.4608,24.96,89,100,2.2,BR,1681015915
371,olinda,-8.0089,-34.8553,24.85,88,75,1.54,BR,1681015770
372,raga,8.4596,25.678,25.45,42,79,1.08,SS,1681015916
373,caravelas,-17.7125,-39.2481,23.95,90,45,2.17,BR,1681015917
374,mirador,-6.3708,-44.3631,21.81,98,100,1.17,BR,1681015917
375,henties bay,-22.116,14.2845,14.64,89,34,5.13,NA,1681015917
376,sulangan,11.1373,123.7228,27.53,76,91,7.14,PH,1681015918
377,taltal,-25.4,-70.4833,18.12,87,23,0.62,CL,1681015820
378,kabinda,-6.1333,24.4833,18.85,97,100,1.9,CD,1681015919
379,almazar,40.3217,69.0106,20.12,51,99,2.74,UZ,1681015919
380,santa isabel do rio negro,-0.4139,-65.0192,22.67,97,99,1.67,BR,1681015920
381,vostok,46.4856,135.8833,6.27,38,6,3.27,RU,1681015920
382,kang,-23.6752,22.7876,21.41,51,100,2.65,BW,1681015921
383,huaquechula,18.7667,-98.55,20.01,52,46,1.87,MX,1681015921
384,nueva gorgona,8.55,-79.8667,27.34,92,95,5.58,PA,1681015921
385,alice springs,-23.7,133.8833,28.75,24,15,3.6,AU,1681015922
386,nola,40.922,14.5329,9.11,91,82,2.23,IT,1681015923
387,lodwar,3.1191,35.5973,28.9,51,57,7.24,KE,1681015923
388,gwadar,25.1216,62.3254,25.18,59,92,2.57,PK,1681015924
389,pangnirtung,66.1451,-65.7125,-27.76,84,32,2.92,CA,1681015924
390,atherton,53.5237,-2.4935,7.72,84,99,0.45,GB,1681015925
391,isangel,-19.55,169.2667,28.31,77,16,2.32,VU,1681015926
392,cascais,38.6979,-9.4215,16.95,47,17,4.02,PT,1681015688
393,rivne,50.6231,26.2274,7.05,83,100,1.28,UA,1681015926
394,karibib,-21.9333,15.8333,19.01,38,64,0.39,NA,1681015927
395,abapo,-18.8333,-63.4667,19.29,61,100,0.31,BO,1681015928
396,umea,63.8284,20.2597,1.96,75,0,2.06,SE,1681015928
397,luanda,-8.8368,13.2343,26.0,89,75,0.51,AO,1681015929
398,te anau,-45.4167,167.7167,14.24,68,98,0.93,NZ,1681015929
399,kruisfontein,-34.0033,24.7314,13.82,90,100,5.57,ZA,1681015930
400,preobrazheniye,42.9019,133.9064,7.54,54,0,6.79,RU,1681015930
401,kombai,9.8333,77.3167,30.12,51,9,2.61,IN,1681015931
402,endicott,42.0984,-76.0494,3.4,61,0,2.06,US,1681015931
403,ayorou,14.7308,0.9174,27.42,14,45,4.77,NE,1681015932
404,hatillo,18.4863,-66.8254,23.62,93,30,0.45,PR,1681015932
405,caucasia,7.9865,-75.1935,24.85,84,51,1.44,CO,1681015933
406,rio tercero,-32.173,-64.1141,15.81,77,0,2.76,AR,1681015934
407,sobolevo,54.4299,31.8996,7.45,73,82,1.61,RU,1681015934
408,mogadishu,2.0371,45.3438,28.93,79,75,5.14,SO,1681015665
409,pinerolo,44.8833,7.35,8.73,57,70,0.77,IT,1681015936
410,andros town,24.7,-77.7667,23.98,76,3,3.34,BS,1681015936
411,dubrovka,53.6907,33.5071,7.39,67,58,1.74,RU,1681015936
412,tucuman,-26.8241,-65.2226,22.0,83,75,1.54,AR,1681015805
413,tongchuan,35.0806,109.0897,20.72,41,96,2.79,CN,1681015937
414,nizhnyaya omka,55.4338,74.9426,1.57,66,95,4.03,RU,1681015938
415,ulaanbaatar,47.9077,106.8832,7.07,33,40,8.0,MN,1681015938
416,miri,4.4148,114.0089,30.08,79,40,2.57,MY,1681015939
417,laramie,41.3114,-105.5911,4.42,72,75,2.57,US,1681015909
418,ust-kuyga,70.0167,135.6,-9.53,71,100,2.24,RU,1681015939
419,pokhara,28.2333,83.9833,28.96,20,46,3.12,NP,1681015940
420,caraguatatuba,-23.6338,-45.4899,21.79,97,100,1.25,BR,1681015940
421,nioro,13.35,-15.75,23.2,36,99,3.66,GM,1681015941
422,longkou,37.6508,120.3286,16.0,51,7,7.7,CN,1681015941
423,plymouth,41.8334,-70.8328,4.81,78,0,0.0,US,1681015848
424,show low,34.2542,-110.0298,8.97,51,0,2.57,US,1681015943
425,asyut,27.181,31.1837,21.1,16,15,2.96,EG,1681015943
426,barkly west,-28.5354,24.5215,13.6,82,64,2.71,ZA,1681015944
427,yashan,22.1975,109.9419,22.68,71,95,2.95,CN,1681015944
428,sarrebourg,48.7333,7.05,5.45,92,6,2.31,FR,1681015944
429,chitral,35.8462,71.7858,14.42,41,0,2.49,PK,1681015945
430,araouane,18.9048,-3.5265,24.2,15,92,5.06,ML,1681015945
431,dubbo,-32.25,148.6167,19.07,34,3,7.72,AU,1681015946
432,luderitz,-26.6481,15.1594,12.72,77,0,9.99,NA,1681015946
433,kawalu,-7.3817,108.2082,31.82,48,36,1.9,ID,1681015947
434,pueblo,38.2545,-104.6091,14.48,28,0,4.12,US,1681015668
435,peniche,39.3558,-9.3811,13.03,94,6,3.49,PT,1681015947
436,mende,44.6667,3.5,-1.61,89,38,1.74,FR,1681015948
437,hamilton,39.1834,-84.5333,8.35,64,0,0.0,US,1681015507
438,barra,-11.0894,-43.1417,24.51,76,95,1.46,BR,1681015949
439,jalu,29.0331,21.5482,17.45,66,79,5.84,LY,1681015949
440,cap malheureux,-19.9842,57.6142,28.04,71,96,3.13,MU,1681015950
441,vao,-22.6667,167.4833,25.48,72,5,4.23,NC,1681015950
442,sawakin,19.1059,37.3321,26.4,77,98,4.32,SD,1681015904
443,aklavik,68.2191,-135.0107,-16.63,97,100,2.44,CA,1681015951
444,garowe,8.4054,48.4845,25.24,71,11,5.54,SO,1681015951
445,san quintin,30.4833,-115.95,13.99,92,21,4.78,MX,1681015952
446,poronaysk,49.2167,143.1167,3.65,54,29,7.02,RU,1681015952
447,gaoual,11.75,-13.2,24.66,57,98,1.39,GN,1681015953
448,bud,39.447,-86.1758,9.01,55,0,2.97,US,1681015953
449,kuching,1.55,110.3333,33.38,64,40,2.57,MY,1681015954
450,fairbanks,64.8378,-147.7164,-9.11,81,100,5.14,US,1681015802
451,lata,40.1629,-8.3327,11.71,72,34,0.97,PT,1681015955
452,inhambane,-23.865,35.3833,25.0,88,20,2.24,MZ,1681015955
453,nanpiao,41.0982,120.7479,24.07,14,0,7.67,CN,1681015956
454,panorama,40.5878,23.0315,9.83,76,100,2.24,GR,1681015956
455,phan thiet,10.9333,108.1,32.45,50,89,6.1,VN,1681015957
456,ostrovnoy,68.0531,39.5131,0.69,91,100,7.53,RU,1681015957
457,oriximina,-1.7656,-55.8661,23.0,94,82,0.8,BR,1681015867
458,alta floresta,-9.8756,-56.0861,21.49,98,100,0.8,BR,1681015958
459,ajdabiya,30.7554,20.2263,15.4,74,0,3.67,LY,1681015958
460,wattegama,6.7989,81.4808,32.06,45,26,3.07,LK,1681015959
461,channel-port aux basques,47.5702,-59.1367,-2.45,62,78,8.73,CA,1681015960
462,wanlaweyn,2.6185,44.8938,28.73,65,10,4.79,SO,1681015960
463,dzhebariki-khaya,62.2167,135.8,-10.83,88,100,3.29,RU,1681015961
464,coquimbo,-29.9533,-71.3436,16.85,82,100,2.57,CL,1681015961
465,muromtsevo,56.3724,75.2418,-0.74,55,82,2.6,RU,1681015962
466,payo,-3.7508,103.6372,30.12,66,71,1.91,ID,1681015962
467,inverell,-29.7833,151.1167,22.04,44,0,3.58,AU,1681015963
468,ketchikan,55.3422,-131.6461,7.26,81,100,10.29,US,1681015963
469,port augusta,-32.5,137.7667,21.31,46,47,5.84,AU,1681015964
470,scarborough,54.2797,-0.4044,5.74,92,81,2.68,GB,1681015674
471,ullapool,57.8987,-5.1604,5.73,86,100,3.41,GB,1681015965
472,broome,42.2506,-75.833,3.21,59,0,2.06,US,1681015965
473,kovur,14.4833,79.9833,33.07,41,0,4.16,IN,1681015966
474,troitsko-pechorsk,62.7084,56.1964,0.48,91,100,3.54,RU,1681015967
475,hearst,49.6835,-83.6665,-0.86,98,49,2.4,CA,1681015967
476,nassjo,57.6531,14.6968,-5.49,87,98,0.77,SE,1681015968
477,oneida,43.2001,-75.4663,2.11,68,0,0.0,US,1681015955
478,buraydah,26.326,43.975,18.25,27,0,3.98,SA,1681015969
479,petatlan,17.5167,-101.2667,24.17,68,23,1.27,MX,1681015970
480,byron bay,-28.65,153.6167,26.51,34,0,4.9,AU,1681015970
481,thunder bay,48.4001,-89.3168,-1.01,86,0,2.57,CA,1681015970
482,luau,-10.7073,22.2247,16.74,96,100,0.69,AO,1681015971
483,sibolga,1.7427,98.7792,29.39,69,88,1.74,ID,1681015971
484,puerto narino,-3.7703,-70.3831,22.2,99,99,1.66,CO,1681015972
485,port hawkesbury,45.6169,-61.3485,-2.8,80,0,3.13,CA,1681015973
486,joao pinheiro,-17.7425,-46.1725,20.98,83,100,1.99,BR,1681015973
487,granadilla de abona,28.1188,-16.576,15.5,62,40,3.6,ES,1681015973
488,yerbogachen,61.2767,108.0108,-8.69,73,100,3.06,RU,1681015974
489,arauca,7.0847,-70.7591,26.0,78,80,0.51,CO,1681015974
490,cartagena del chaira,1.3349,-74.8429,21.07,99,100,1.4,CO,1681015975
491,college,64.8569,-147.8028,-9.12,81,100,5.14,US,1681015975
492,kendari,-3.945,122.4989,31.42,57,37,0.68,ID,1681015976
493,saint-georges,12.0564,-61.7485,25.82,78,40,6.69,GD,1681015976
494,hudiksvall,61.729,17.1036,-0.05,87,11,1.95,SE,1681015977
495,mecca,21.4267,39.8261,27.95,40,29,1.34,SA,1681015787
496,road town,18.4167,-64.6167,25.05,78,2,7.76,VG,1681015715
497,kinango,-4.1372,39.3153,26.66,78,10,1.23,KE,1681015978
498,rio gallegos,-51.6226,-69.2181,4.03,65,75,6.17,AR,1681015978
499,fort-shevchenko,44.5086,50.263,10.38,86,100,4.76,KZ,1681015979
500,jibuti,11.5,42.5,24.94,68,19,8.48,DJ,1681015980
501,puerto escondido,15.85,-97.0667,28.46,78,40,2.57,MX,1681015980
502,akyab,20.15,92.9,31.01,41,1,4.52,MM,1681015981
503,panama city,8.9936,-79.5197,26.58,75,75,3.09,PA,1681015872
504,waiuku,-37.25,174.75,19.49,85,100,4.02,NZ,1681015982
505,juli,-16.2167,-69.45,4.43,88,100,2.66,PE,1681015982
506,ambatondrazaka,-17.8333,48.4167,20.73,85,86,1.69,MG,1681015983
507,bogalusa,30.791,-89.8487,18.21,82,100,4.63,US,1681015984
508,esfarayen,37.0765,57.5101,13.81,21,97,1.44,IR,1681015984
509,nouadhibou,20.931,-17.0347,16.99,88,1,5.66,MR,1681015984
510,suntar,62.1444,117.6319,-9.96,74,100,5.38,RU,1681015985
511,yar-sale,66.8333,70.8333,-12.79,95,100,8.07,RU,1681015961
512,severnoye,56.3491,78.3619,-5.83,53,19,3.64,RU,1681015987
513,rafai,4.95,23.9167,21.44,84,94,1.22,CF,1681015987
514,san ignacio,17.1561,-89.0714,20.24,98,6,1.3,BZ,1681015988
515,zhigalovo,54.8097,105.1578,-1.07,49,100,1.93,RU,1681015988
516,williston,48.147,-103.618,6.84,81,20,2.16,US,1681015803
517,america dourada,-11.4553,-41.4361,20.76,93,49,2.08,BR,1681015989
518,neuquen,-38.9516,-68.0591,11.94,76,0,0.0,AR,1681015936
519,bousso,10.4795,16.7117,29.97,23,98,1.35,TD,1681015990
520,palu,-0.8917,119.8707,29.2,75,43,2.3,ID,1681015991
521,katsuura,35.1333,140.3,13.85,40,1,4.15,JP,1681015991
522,bonfim,3.0833,-59.95,28.23,42,88,2.06,BR,1681015992
523,nome,64.5011,-165.4064,-20.96,77,100,4.12,US,1681015992
524,perm,58.0174,56.2855,5.7,33,0,3.0,RU,1681015993
525,san cristobal,7.7669,-72.225,20.1,79,76,1.03,VE,1681015993
526,zhongxing,33.7039,118.6792,20.02,40,0,6.11,CN,1681015994
527,ilheus,-14.7889,-39.0494,24.64,88,100,0.7,BR,1681015994
528,bhatkal,13.9667,74.5667,30.85,64,3,2.84,IN,1681015994
529,ferme-neuve,46.7001,-75.4493,-6.93,98,30,0.66,CA,1681015995
530,gamba,-2.65,10.0,25.81,89,100,1.95,GA,1681015995
531,menongue,-14.6585,17.691,15.3,76,97,1.54,AO,1681015996
532,sao miguel do araguaia,-13.275,-50.1628,21.66,95,100,1.71,BR,1681015996
533,sorland,67.667,12.6934,3.92,88,94,4.8,NO,1681015997
534,vieux-habitants,16.0589,-61.7659,24.76,80,96,5.12,GP,1681015997
535,mudgee,-32.5943,149.5871,17.1,34,3,6.92,AU,1681015998
536,urubicha,-15.3833,-62.95,20.68,83,81,1.16,BO,1681015998
537,enugu,6.4402,7.4943,24.66,83,20,0.0,NG,1681015999
538,kununurra,-15.7667,128.7333,33.99,52,96,5.14,AU,1681015999
539,mount gambier,-37.8333,140.7667,14.22,61,100,4.52,AU,1681016000
540,gatton,-27.55,152.2833,26.52,30,0,6.91,AU,1681016000
541,champerico,14.3,-91.9167,28.45,67,52,2.61,GT,1681016000
542,aryanah,36.8601,10.1934,12.93,76,20,2.57,TN,1681016001
543,nishihara,26.1842,127.7558,20.81,49,40,4.63,JP,1681016001
544,leshukonskoye,64.8989,45.7622,0.07,95,100,3.19,RU,1681016002
545,port hueneme,34.1478,-119.1951,14.59,91,100,2.57,US,1681016002
546,baykit,61.67,96.37,-7.65,80,100,3.35,RU,1681016003
547,khromtau,50.2503,58.4347,3.22,34,7,5.34,KZ,1681016003
548,puerto del rosario,28.5004,-13.8627,16.86,67,0,3.09,ES,1681016003
549,shadrinsk,56.0852,63.6335,5.89,62,9,3.53,RU,1681016004
550,seddon,-37.8068,144.8916,15.85,66,75,8.75,AU,1681016005
551,goundam,16.4145,-3.6708,26.33,15,99,3.19,ML,1681016005
552,det udom,14.906,105.0784,32.9,26,41,0.94,TH,1681016006
553,chester,40.1254,-75.8749,4.45,79,0,0.89,US,1681016006
554,ous,60.9058,61.5186,3.8,75,83,4.0,RU,1681016007
555,goderich,43.7501,-81.7165,0.51,93,25,2.06,CA,1681015739
556,goure,13.9835,10.2704,26.97,12,58,2.86,NE,1681016008
557,huarmey,-10.0681,-78.1522,25.57,80,100,4.47,PE,1681016008
558,dakar,14.6937,-17.4441,20.49,81,38,10.02,SN,1681015743
559,armidale,-30.5167,151.65,15.36,44,0,7.24,AU,1681016009
560,herat,34.5,62.0,23.39,23,54,3.33,AF,1681016010
561,san fernando,15.0286,120.6898,33.85,34,76,3.93,PH,1681016011
562,zeya,53.75,127.2667,2.73,50,89,4.83,RU,1681016011
563,lafayette,30.2335,-92.0668,17.01,90,100,4.12,US,1681015933
564,diego de almagro,-26.3667,-70.05,16.44,55,4,1.27,CL,1681015888
565,tabou,4.423,-7.3528,25.33,89,93,2.77,CI,1681016012
566,plouzane,48.3833,-4.6167,10.03,74,0,4.63,FR,1681016013
567,deniliquin,-35.5333,144.9667,15.75,44,69,7.0,AU,1681016013
